"meetup_id";"meetup_slug";"meetup_name";"meetup_link";"country_id";"meetup_members";"meetup_date_created";"meetup_lat";"meetup_lon";"meetup_tz";"meetup_active"
"273731";"WordPressNYC";"WordPress NYC Meetup Group";"https://www.meetup.com/wordpressnyc";"us";"9563";"2006-06-29";"40.74";"-73.99";"America/New_York";"1"
"457274";"austinwordpress";"WordPress Austin";"https://www.meetup.com/austinwordpress";"us";"3971";"2007-03-22";"30.27";"-97.74";"America/Chicago";"1"
"1280797";"wordpress-atlanta";"Atlanta WordPress Users Group";"https://www.meetup.com/wordpress-atlanta";"us";"3832";"2008-09-12";"33.77";"-84.33";"America/New_York";"1"
"1298065";"SF-WordPress-Users";"South Florida WordPress Meetup Group";"https://www.meetup.com/sf-wordpress-users";"us";"6000";"2008-10-09";"25.78";"-80.24";"America/New_York";"1"
"1385733";"Eastbay-WordPress-Meetup";"The East Bay WordPress Meetup Group";"https://www.meetup.com/eastbay-wordpress-meetup";"us";"1551";"2009-02-17";"37.81";"-122.27";"America/Los_Angeles";"1"
"1388107";"wplosangeles";"WordPress Los Angeles";"https://www.meetup.com/wplosangeles";"us";"3150";"2009-02-20";"34.01";"-118.39";"America/Los_Angeles";"1"
"1389977";"Greater-Charlotte-Area-WordPress-Group";"Greater Charlotte Area WordPress Group";"https://www.meetup.com/greater-charlotte-area-wordpress-group";"us";"664";"2009-02-22";"35.21";"-80.86";"America/New_York";"1"
"1394831";"metro-detroit-wordpress-meetup";"Metro Detroit WordPress Meetup";"https://www.meetup.com/metro-detroit-wordpress-meetup";"us";"973";"2009-02-27";"42.33";"-83.05";"America/New_York";"1"
"1420395";"okc-wordpress-users-group";"OKC WordPress Users Group";"https://www.meetup.com/okc-wordpress-users-group";"us";"1304";"2009-03-28";"35.47";"-97.52";"America/Chicago";"1"
"1427908";"Raleigh-WordPress-Meetup-Group";"Raleigh-Durham RTP WordPress Meetup Group";"https://www.meetup.com/raleigh-wordpress-meetup-group";"us";"1542";"2009-04-06";"35.89";"-78.64";"America/New_York";"1"
"1438007";"vancouver-wordpress-meetup-group";"The Vancouver WordPress Meetup Group";"https://www.meetup.com/vancouver-wordpress-meetup-group";"ca";"3309";"2009-04-19";"49.27";"-123.15";"America/Vancouver";"1"
"1447706";"wordpress-swfl";"WordPress Meetup Southwest Florida";"https://www.meetup.com/wordpress-swfl";"us";"919";"2009-05-01";"26.63";"-81.87";"America/New_York";"1"
"1466973";"neowordpress";"Northeast Ohio WordPress Meetup";"https://www.meetup.com/neowordpress";"us";"1793";"2009-06-04";"41.49";"-81.67";"America/New_York";"1"
"1475866";"santa-cruz-wordpress";"Santa Cruz WordPress HelpDesk";"https://www.meetup.com/santa-cruz-wordpress";"us";"911";"2009-06-19";"36.99";"-122.06";"America/Los_Angeles";"1"
"1488811";"WordPressDevNH";"New Hampshire WordPress";"https://www.meetup.com/wordpressdevnh";"us";"648";"2009-07-13";"42.99";"-71.47";"America/New_York";"1"
"1507211";"DenverWordPress";"Denver WordPress Meetup";"https://www.meetup.com/denverwordpress";"us";"2319";"2009-08-16";"39.77";"-105.01";"America/Denver";"1"
"1508974";"fb8fd56a-5dd2-4f02-8843-d39f3033a366";"WordPress Bay Area Foothills Group";"https://www.meetup.com/fb8fd56a-5dd2-4f02-8843-d39f3033a366";"us";"532";"2009-08-19";"37.44";"-121.89";"America/Los_Angeles";"0"
"1515077";"boulderwp";"Boulder WordPress Meetup";"https://www.meetup.com/boulderwp";"us";"1534";"2009-08-30";"40.04";"-105.31";"America/Denver";"1"
"1515704";"WordPress-Websites";"West Jordan WordPress Meetup";"https://www.meetup.com/wordpress-websites";"us";"1323";"2009-08-31";"40.65";"-111.98";"America/Denver";"1"
"1548966";"Buffalo-Wordpress";"Buffalo WordPress Users";"https://www.meetup.com/buffalo-wordpress";"us";"1588";"2009-10-30";"42.9";"-78.88";"America/New_York";"1"
"1564158";"Wordpress-Westchester-Meetup-Group";"WordPress Westchester Meetup Group";"https://www.meetup.com/wordpress-westchester-meetup-group";"us";"991";"2009-12-01";"41.03";"-73.76";"America/New_York";"1"
"1564312";"wordpressdc";"WordPress DC";"https://www.meetup.com/wordpressdc";"us";"4360";"2009-12-02";"38.91";"-77.02";"America/New_York";"1"
"1573416";"wptoronto";"The Toronto WordPress Group";"https://www.meetup.com/wptoronto";"ca";"4376";"2009-12-27";"43.66";"-79.38";"America/Toronto";"1"
"1574452";"OC-Wordpress-Group";"OC WordPress Group";"https://www.meetup.com/oc-wordpress-group";"us";"2940";"2009-12-29";"33.68";"-118.01";"America/Los_Angeles";"1"
"1640430";"sacramento-wordpress";"Sacramento WordPress Meetup";"https://www.meetup.com/sacramento-wordpress";"us";"2036";"2010-05-04";"38.58";"-121.51";"America/Los_Angeles";"1"
"1655478";"wordpresskc";"WordPress KC";"https://www.meetup.com/wordpresskc";"us";"2087";"2010-06-03";"39.06";"-94.59";"America/Chicago";"1"
"1661258";"philadelphia-wordpress-meetup-group";"Philadelphia WordPress Meetup Group";"https://www.meetup.com/philadelphia-wordpress-meetup-group";"us";"3292";"2010-06-15";"39.96";"-75.2";"America/New_York";"1"
"1675753";"WordPress-Brisbane";"WordPress Brisbane";"https://www.meetup.com/wordpress-brisbane";"au";"3478";"2010-07-14";"-27.46";"153.02";"Australia/Brisbane";"1"
"1677620";"Greenville-South-Carolina-WordPress-Group";"Greenville South Carolina WordPress Group";"https://www.meetup.com/greenville-south-carolina-wordpress-group";"us";"732";"2010-07-19";"34.9";"-82.4";"America/New_York";"1"
"1681573";"stlwordpress";"The St. Louis WordPress Community";"https://www.meetup.com/stlwordpress";"us";"1546";"2010-07-27";"38.63";"-90.19";"America/Chicago";"1"
"1683800";"Milwaukee-WordPress-MeetUp";"Greater Milwaukee Area WordPress Meetup";"https://www.meetup.com/milwaukee-wordpress-meetup";"us";"2606";"2010-07-31";"43.04";"-87.92";"America/Chicago";"1"
"1685966";"WordPress-Memphis";"WordPress Memphis";"https://www.meetup.com/wordpress-memphis";"us";"914";"2010-08-04";"35.17";"-90.03";"America/Chicago";"1"
"1692901";"Morris-County-NJ-WordPress-Group";"Morris County NJ WordPress Meetup";"https://www.meetup.com/morris-county-nj-wordpress-group";"us";"529";"2010-08-18";"40.86";"-74.41";"America/New_York";"1"
"1699520";"The-Baltimore-WordPress-Group";"The Baltimore WordPress Group";"https://www.meetup.com/the-baltimore-wordpress-group";"us";"2023";"2010-08-31";"39.31";"-76.58";"America/New_York";"1"
"1707562";"southcentralcoastwordpress";"South Central Coast WordPress Adventure Group";"https://www.meetup.com/southcentralcoastwordpress";"us";"746";"2010-09-16";"34.42";"-119.71";"America/Los_Angeles";"1"
"1708069";"seattlewordpressmeetup";"Seattle WordPress Meetup";"https://www.meetup.com/seattlewordpressmeetup";"us";"5122";"2010-09-17";"47.61";"-122.33";"America/Los_Angeles";"1"
"1717937";"houston-wordpress";"The Houston WordPress Meetup Group";"https://www.meetup.com/houston-wordpress";"us";"2939";"2010-10-06";"29.76";"-95.36";"America/Chicago";"1"
"1721110";"WordPress-Sydney";"WordPress Sydney";"https://www.meetup.com/wordpress-sydney";"au";"3090";"2010-10-12";"-33.87";"151.21";"Australia/Sydney";"1"
"1725526";"sarasotawordpress";"Sarasota WordPress";"https://www.meetup.com/sarasotawordpress";"us";"557";"2010-10-20";"27.27";"-82.52";"America/New_York";"1"
"1728035";"wpnashville";"WordPress Nashville";"https://www.meetup.com/wpnashville";"us";"1999";"2010-10-25";"36.17";"-86.79";"America/Chicago";"1"
"1732703";"pdx-wp";"Portland WordPress Meetup";"https://www.meetup.com/pdx-wp";"us";"3369";"2010-11-04";"45.52";"-122.64";"America/Los_Angeles";"1"
"1738358";"WordpressDevSeacoast";"Seacoast NH WordPress";"https://www.meetup.com/wordpressdevseacoast";"us";"455";"2010-11-15";"43.07";"-70.78";"America/New_York";"1"
"1746085";"WordPress-Chapel-Hill";"WordPress Chapel Hill";"https://www.meetup.com/wordpress-chapel-hill";"us";"357";"2010-12-03";"35.93";"-79.04";"America/New_York";"1"
"1762955";"albuquerque-wordpress";"The Albuquerque WordPress User Group";"https://www.meetup.com/albuquerque-wordpress";"us";"1424";"2011-01-10";"35.08";"-106.65";"America/Denver";"1"
"1779878";"WordPresshr";"WordPress Hampton Roads";"https://www.meetup.com/wordpresshr";"us";"649";"2011-02-07";"36.95";"-76.25";"America/New_York";"1"
"1791716";"WordPress-Hobart";"WordPress Hobart";"https://www.meetup.com/wordpress-hobart";"au";"609";"2011-03-01";"-42.85";"147.29";"Australia/Hobart";"1"
"1792019";"WordPress-Adelaide";"WordPress Adelaide";"https://www.meetup.com/wordpress-adelaide";"au";"1969";"2011-03-01";"-34.93";"138.6";"Australia/Adelaide";"1"
"1796024";"wordpress-stamford";"WordPress Stamford Meetup";"https://www.meetup.com/wordpress-stamford";"us";"290";"2011-03-09";"41.05";"-73.54";"America/New_York";"1"
"1796140";"Appleton-WordPress";"Appleton WordPress";"https://www.meetup.com/appleton-wordpress";"us";"423";"2011-03-09";"44.28";"-88.41";"America/Chicago";"1"
"1799315";"8fc9581a-5d3c-4c50-9622-3249f379f51e";"Oslo WordPress Meetup";"https://www.meetup.com/8fc9581a-5d3c-4c50-9622-3249f379f51e";"no";"1178";"2011-03-15";"59.91";"10.75";"Europe/Berlin";"0"
"1822392";"WordPress-Melbourne";"WordPress Melbourne User Group";"https://www.meetup.com/wordpress-melbourne";"au";"3294";"2011-04-28";"-37.81";"144.96";"Australia/Melbourne";"1"
"1839741";"wpatlanta";"WordPress Cobb (Metro Atlanta) Users Group";"https://www.meetup.com/wpatlanta";"us";"1735";"2011-05-10";"34";"-84.47";"America/New_York";"1"
"1949651";"Dublin-WordPress";"Dublin WordPress Group";"https://www.meetup.com/dublin-wordpress";"ie";"1115";"2011-06-01";"53.33";"-6.25";"Europe/Dublin";"1"
"1970361";"the-reno-wordpress-meetup-group";"The Reno WordPress Meetup Group";"https://www.meetup.com/the-reno-wordpress-meetup-group";"us";"754";"2011-06-05";"39.48";"-119.9";"America/Los_Angeles";"1"
"2109751";"wordpressindy";"WordPress Indianapolis Networking (WIN) Group";"https://www.meetup.com/wordpressindy";"us";"600";"2011-07-01";"39.87";"-86.11";"America/New_York";"1"
"2141121";"ce9db3f5-02ae-4aff-bc3f-36938111f7ae";"Missoula WordPress meetup";"https://www.meetup.com/ce9db3f5-02ae-4aff-bc3f-36938111f7ae";"us";"37";"2011-07-08";"46.86";"-114.04";"America/Denver";"0"
"2340541";"barrington-wordpress-meetup-group";"Barrington WordPress Meetup Group";"https://www.meetup.com/barrington-wordpress-meetup-group";"us";"506";"2011-08-14";"42.19";"-88.14";"America/Chicago";"1"
"2366551";"wordpressknoxville";"WordPress Knoxville";"https://www.meetup.com/wordpressknoxville";"us";"880";"2011-08-19";"36.03";"-83.89";"America/New_York";"1"
"2365771";"the-ottawa-wordpress-group";"The Ottawa WordPress Group";"https://www.meetup.com/the-ottawa-wordpress-group";"ca";"1797";"2011-08-19";"45.42";"-75.68";"America/Toronto";"1"
"2378101";"wp-columbus";"Columbus WordPress Meetup";"https://www.meetup.com/wp-columbus";"us";"1380";"2011-08-22";"40.12";"-83.03";"America/New_York";"1"
"2402362";"27177658-540c-4905-84d9-5ec03ac4fa37";"The College Station WordPress Meetup Group";"https://www.meetup.com/27177658-540c-4905-84d9-5ec03ac4fa37";"us";"200";"2011-08-28";"30.6";"-96.31";"America/Chicago";"0"
"2441852";"wordpress-bordeaux";"WordPress Bordeaux";"https://www.meetup.com/wordpress-bordeaux";"fr";"1193";"2011-09-06";"44.84";"-0.58";"Europe/Paris";"1"
"2449262";"wordpresswinnipeg";"WordPress Winnipeg";"https://www.meetup.com/wordpresswinnipeg";"ca";"948";"2011-09-07";"49.92";"-97.12";"America/Winnipeg";"1"
"2475502";"mauiwp";"Maui WordPress";"https://www.meetup.com/mauiwp";"us";"670";"2011-09-13";"20.88";"-156.48";"Pacific/Honolulu";"1"
"2481632";"The-Las-Vegas-WordPress-Meetup-Group";"The Las Vegas WordPress Meetup Group";"https://www.meetup.com/the-las-vegas-wordpress-meetup-group";"us";"2105";"2011-09-14";"36.17";"-115.12";"America/Los_Angeles";"1"
"2568282";"wordpress-perth";"WordPress Perth";"https://www.meetup.com/wordpress-perth";"au";"1694";"2011-09-29";"-31.96";"115.84";"Australia/Perth";"1"
"2589472";"Fort-Worth-WordPress-Group";"Fort Worth WordPress Meetup";"https://www.meetup.com/fort-worth-wordpress-group";"us";"922";"2011-10-04";"32.74";"-97.38";"America/Chicago";"1"
"2684802";"wordpress-pasadena";"WordPress Pasadena";"https://www.meetup.com/wordpress-pasadena";"us";"1294";"2011-10-21";"34.15";"-118.14";"America/Los_Angeles";"1"
"2752572";"wordpress-orlando";"WordPress Orlando";"https://www.meetup.com/wordpress-orlando";"us";"5062";"2011-11-03";"28.54";"-81.37";"America/New_York";"1"
"2759732";"WordPress-Midcities-User-Group";"WordPress Midcities User Group";"https://www.meetup.com/wordpress-midcities-user-group";"us";"1160";"2011-11-04";"32.86";"-97.14";"America/Chicago";"1"
"2843992";"the-calgary-wordpress-meetup-group";"The Calgary WordPress Meetup Group";"https://www.meetup.com/the-calgary-wordpress-meetup-group";"ca";"1242";"2011-11-21";"51.03";"-114.1";"America/Edmonton";"1"
"2892632";"Chicago-WordPress-Meetup";"Chicago WordPress Community Meetup";"https://www.meetup.com/chicago-wordpress-meetup";"us";"1629";"2011-12-02";"41.97";"-87.7";"America/Chicago";"1"
"2908692";"WordPressRI";"WordPress RI Meetup";"https://www.meetup.com/wordpressri";"us";"1606";"2011-12-05";"41.82";"-71.41";"America/New_York";"1"
"2955122";"wpgrandrapids";"WPGR - Grand Rapids WordPress Meetup";"https://www.meetup.com/wpgrandrapids";"us";"816";"2011-12-15";"42.96";"-85.66";"America/New_York";"1"
"3012472";"wordpress-wp518";"WP518 - Upstate New York WordPress Meetup Group";"https://www.meetup.com/wordpress-wp518";"us";"569";"2011-12-30";"43.08";"-73.77";"America/New_York";"1"
"3022832";"1dd385da-b00a-41e0-afad-ed66e1b17265";"The Hanoi WordPress Meetup Group";"https://www.meetup.com/1dd385da-b00a-41e0-afad-ed66e1b17265";"vn";"787";"2012-01-01";"21.03";"105.84";"Asia/Ho_Chi_Minh";"0"
"3024032";"sd-wordpress";"San Diego WordPress Meetup";"https://www.meetup.com/sd-wordpress";"us";"794";"2012-01-02";"32.72";"-117.17";"America/Los_Angeles";"1"
"3109652";"savannah-tybee-wordpress-meetup";"Savannah/Tybee WordPress Meetup Group";"https://www.meetup.com/savannah-tybee-wordpress-meetup";"us";"366";"2012-01-15";"32.07";"-81.11";"America/New_York";"1"
"3129482";"JXNWP-meetup";"Jackson WP Meetup";"https://www.meetup.com/jxnwp-meetup";"us";"360";"2012-01-19";"42.25";"-84.38";"America/New_York";"1"
"3144612";"9021ee4d-d5ea-4b96-950c-1aa6ec671eff";"WordPress & PHP (Northern Virginia)";"https://www.meetup.com/9021ee4d-d5ea-4b96-950c-1aa6ec671eff";"us";"449";"2012-01-21";"38.8";"-77.05";"America/New_York";"0"
"3152582";"wordpress-zurich";"WordPress Zurich";"https://www.meetup.com/wordpress-zurich";"ch";"1207";"2012-01-23";"47.38";"8.54";"Europe/Zurich";"1"
"3211572";"Fort-Collins-WordPress-Meetup";"Fort Collins WordPress Meetup";"https://www.meetup.com/fort-collins-wordpress-meetup";"us";"650";"2012-02-01";"40.53";"-105.04";"America/Denver";"1"
"3222242";"sanjosewp";"WordPress Helpdesk support San Jose meetup";"https://www.meetup.com/sanjosewp";"us";"804";"2012-02-02";"37.26";"-121.92";"America/Los_Angeles";"1"
"3235622";"WordPress-Gwinnett";"WordPress Gwinnett";"https://www.meetup.com/wordpress-gwinnett";"us";"1205";"2012-02-05";"33.94";"-83.96";"America/New_York";"1"
"3356332";"WordPress-Lisboa";"WordPress Lisboa";"https://www.meetup.com/wordpress-lisboa";"pt";"2152";"2012-02-24";"38.72";"-9.14";"Europe/Lisbon";"1"
"3404452";"WordPress-Lancaster";"WordPress Lancaster";"https://www.meetup.com/wordpress-lancaster";"us";"638";"2012-03-03";"40.05";"-76.35";"America/New_York";"1"
"3500192";"wordpress-madrid";"Madrid WordPress";"https://www.meetup.com/wordpress-madrid";"es";"4293";"2012-03-18";"40.42";"-3.71";"Europe/Madrid";"1"
"3686142";"wp-admin";"WP_Hooked";"https://www.meetup.com/wp-admin";"gb";"1294";"2012-04-17";"51.51";"-0.11";"Europe/London";"1"
"3695462";"Asheville-Area-WordPress-Group";"Asheville Area WordPress Group";"https://www.meetup.com/asheville-area-wordpress-group";"us";"874";"2012-04-18";"35.59";"-82.56";"America/New_York";"1"
"3833112";"WordPress-Meetup";"Gainesville WordPress Meetup Group";"https://www.meetup.com/wordpress-meetup";"us";"511";"2012-05-09";"29.65";"-82.3";"America/New_York";"1"
"3961642";"geneva-wordpress";"WordPress Meetups Genève (Geneva)";"https://www.meetup.com/geneva-wordpress";"ch";"985";"2012-05-29";"46.21";"6.14";"Europe/Zurich";"1"
"4091832";"TriadWordPress";"The Triad WordPress Meetup Group";"https://www.meetup.com/triadwordpress";"us";"810";"2012-06-15";"36.17";"-79.98";"America/New_York";"1"
"4332842";"wpkathmandu";"WordPress Kathmandu";"https://www.meetup.com/wpkathmandu";"np";"1854";"2012-07-17";"27.71";"85.31";"Asia/Kathmandu";"1"
"4358602";"WPGoldCoast";"WordPress Gold Coast";"https://www.meetup.com/wpgoldcoast";"au";"892";"2012-07-20";"-28.07";"153.44";"Australia/Brisbane";"1"
"4482232";"PeoriaWP";"WordPress Peoria";"https://www.meetup.com/peoriawp";"us";"604";"2012-08-06";"40.7";"-89.61";"America/Chicago";"1"
"4511152";"inlandempirewp";"Inland Empire WordPress Meetup Group";"https://www.meetup.com/inlandempirewp";"us";"1191";"2012-08-10";"33.99";"-117.37";"America/Los_Angeles";"1"
"4534442";"wordpress-ile-de-france";"WordPress Paris";"https://www.meetup.com/wordpress-ile-de-france";"fr";"1935";"2012-08-13";"48.86";"2.34";"Europe/Paris";"1"
"4602482";"romawordpress";"Il Meetup WordPress di Roma";"https://www.meetup.com/romawordpress";"it";"972";"2012-08-21";"41.9";"12.48";"Europe/Rome";"1"
"4614392";"tallinn-wordpress-meetup";"Tallinn WordPress meetup";"https://www.meetup.com/tallinn-wordpress-meetup";"ee";"490";"2012-08-22";"59.44";"24.74";"Europe/Tallinn";"1"
"4637052";"Dayton-WordPress";"Dayton WordPress";"https://www.meetup.com/dayton-wordpress";"us";"661";"2012-08-25";"39.67";"-84.12";"America/New_York";"1"
"5157092";"minneapolis-st-paul-wordpress-user-group";"Minneapolis - St. Paul WordPress User Group";"https://www.meetup.com/minneapolis-st-paul-wordpress-user-group";"us";"2081";"2012-09-29";"45.02";"-93.24";"America/Chicago";"1"
"5289192";"west-valley-wordpress-meetup-group";"West Valley WordPress Meetup Group";"https://www.meetup.com/west-valley-wordpress-meetup-group";"us";"740";"2012-10-08";"34.15";"-118.6";"America/Los_Angeles";"1"
"5336112";"BirminghamWordPress";"WordPress Birmingham (UK)";"https://www.meetup.com/birminghamwordpress";"gb";"1040";"2012-10-10";"52.48";"-1.9";"Europe/London";"1"
"5418222";"cbd8ccf5-09cd-454f-8cb1-6edba0af6d39";"Northeast PA WordPress";"https://www.meetup.com/cbd8ccf5-09cd-454f-8cb1-6edba0af6d39";"us";"312";"2012-10-16";"41.41";"-75.64";"America/New_York";"0"
"5440232";"wpsampa";"Comunidade WordPress São Paulo";"https://www.meetup.com/wpsampa";"br";"3588";"2012-10-17";"-23.53";"-46.63";"America/Sao_Paulo";"1"
"5936032";"WP-Omaha";"WP Omaha";"https://www.meetup.com/wp-omaha";"us";"967";"2012-11-20";"41.29";"-96";"America/Chicago";"1"
"6057312";"vienna-wordpress-meetup";"WordPress Meetup Vienna";"https://www.meetup.com/vienna-wordpress-meetup";"at";"1973";"2012-11-30";"48.22";"16.37";"Europe/Vienna";"1"
"6310402";"Southern-Maine-WordPress-Meetup";"Greater Portland, Maine WordPress Meetup";"https://www.meetup.com/southern-maine-wordpress-meetup";"us";"760";"2012-12-20";"43.68";"-70.36";"America/New_York";"1"
"6605582";"destin-fwb-wordpress-meetup";"Destin | Fort Walton Beach WordPress Meetup";"https://www.meetup.com/destin-fwb-wordpress-meetup";"us";"107";"2013-01-11";"30.4";"-86.48";"America/Chicago";"1"
"6612252";"Birmingham-WordPress-Meetup";"Birmingham WordPress Meetup";"https://www.meetup.com/birmingham-wordpress-meetup";"us";"1089";"2013-01-12";"33.52";"-86.81";"America/Chicago";"1"
"6706232";"WordPress-Naperville";"WordPress Naperville";"https://www.meetup.com/wordpress-naperville";"us";"1645";"2013-01-17";"41.79";"-88.17";"America/Chicago";"1"
"6733162";"WordPress-Copenhagen";"WordPress Copenhagen";"https://www.meetup.com/wordpress-copenhagen";"dk";"1721";"2013-01-19";"55.68";"12.57";"Europe/Berlin";"1"
"6893552";"bangkok-wordpress";"WordPress Bangkok";"https://www.meetup.com/bangkok-wordpress";"th";"2750";"2013-01-28";"13.73";"100.5";"Asia/Bangkok";"1"
"6964262";"WordPress-Wellington";"WordPress Wellington";"https://www.meetup.com/wordpress-wellington";"nz";"704";"2013-01-31";"-41.28";"174.78";"Pacific/Auckland";"1"
"7103252";"ColoradoSpringsWordPress";"Colorado Springs WordPress Meetup";"https://www.meetup.com/coloradospringswordpress";"us";"654";"2013-02-09";"38.83";"-104.82";"America/Denver";"1"
"7105772";"Auckland-WordPress-Users";"Auckland WordPress";"https://www.meetup.com/auckland-wordpress-users";"nz";"1302";"2013-02-09";"-36.85";"174.76";"Pacific/Auckland";"1"
"7512692";"wordpress-amsterdam";"WordPress Meetup Amsterdam";"https://www.meetup.com/wordpress-amsterdam";"nl";"1362";"2013-03-07";"52.37";"4.89";"Europe/Brussels";"1"
"7580422";"wordpress-jacksonville";"WPJax / WordPress Jacksonville";"https://www.meetup.com/wordpress-jacksonville";"us";"1422";"2013-03-12";"30.19";"-81.49";"America/New_York";"1"
"7721192";"wordpress-meetup-louisville";"WordPress Louisville";"https://www.meetup.com/wordpress-meetup-louisville";"us";"648";"2013-03-21";"38.22";"-85.74";"America/New_York";"1"
"7771672";"wordpress-meetup-milano";"WordPress Meetup Milano";"https://www.meetup.com/wordpress-meetup-milano";"it";"2091";"2013-03-25";"45.46";"9.19";"Europe/Rome";"1"
"8041842";"tokyo-wordpress-meetup";"Tokyo WordPress Meetup";"https://www.meetup.com/tokyo-wordpress-meetup";"jp";"2905";"2013-04-12";"35.67";"139.77";"Asia/Tokyo";"1"
"8041892";"sanantoniowordpress";"The San Antonio WordPress Meetup Group";"https://www.meetup.com/sanantoniowordpress";"us";"1468";"2013-04-13";"29.48";"-98.49";"America/Chicago";"1"
"8337282";"WordPressBeloHorizonte";"Belo Horizonte WordPress Group";"https://www.meetup.com/wordpressbelohorizonte";"br";"1330";"2013-05-04";"-19.92";"-43.94";"America/Sao_Paulo";"1"
"8509732";"wordpress-buenosaires";"WordPress Buenos Aires";"https://www.meetup.com/wordpress-buenosaires";"ar";"2989";"2013-05-16";"-34.61";"-58.37";"America/Argentina/Buenos_Aires";"1"
"8514742";"Tulsa-WordPress-Meetup";"Tulsa WordPress Meetup";"https://www.meetup.com/tulsa-wordpress-meetup";"us";"373";"2013-05-16";"36.05";"-95.88";"America/Chicago";"1"
"8723362";"WordPress-Aarhus";"WordPress Aarhus";"https://www.meetup.com/wordpress-aarhus";"dk";"953";"2013-05-31";"56.16";"10.21";"Europe/Berlin";"1"
"8760832";"wp-north-east";"WordPress North East";"https://www.meetup.com/wp-north-east";"gb";"1637";"2013-06-03";"54.98";"-1.61";"Europe/London";"1"
"8841372";"WordPressHartford";"WordPress Hartford, CT";"https://www.meetup.com/wordpresshartford";"us";"990";"2013-06-08";"41.69";"-72.73";"America/New_York";"1"
"9557932";"469a88a3-73f9-4f17-8121-536b7ed4fea4";"Tuscaloosa WordPress Meetup";"https://www.meetup.com/469a88a3-73f9-4f17-8121-536b7ed4fea4";"us";"195";"2013-07-29";"33.19";"-87.56";"America/Chicago";"0"
"9710872";"wordpress-meetup-koln";"WordPress Meetup Köln";"https://www.meetup.com/wordpress-meetup-koln";"de";"1397";"2013-08-07";"50.95";"6.97";"Europe/Berlin";"1"
"10395142";"fresno-wordpress-meetup";"Fresno WordPress Meetup";"https://www.meetup.com/fresno-wordpress-meetup";"us";"985";"2013-09-23";"36.76";"-119.82";"America/Los_Angeles";"1"
"10524822";"66e02b55-757d-464d-b3f9-a990ba35d455";"WordPress Meetup Heidelberg";"https://www.meetup.com/66e02b55-757d-464d-b3f9-a990ba35d455";"de";"147";"2013-10-02";"49.42";"8.69";"Europe/Berlin";"0"
"10798492";"wordup-brighton";"Brighton WordPress Meetup";"https://www.meetup.com/wordup-brighton";"gb";"708";"2013-10-22";"50.83";"-0.14";"Europe/London";"1"
"10822442";"wordpress-jeddah";"WordPress Jeddah";"https://www.meetup.com/wordpress-jeddah";"sa";"2777";"2013-10-24";"21.5";"39.17";"Asia/Riyadh";"1"
"10818832";"1e81d97d-3eca-4a4c-bf9e-8bac301f152d";"WordPress for web site builders and bloggers";"https://www.meetup.com/1e81d97d-3eca-4a4c-bf9e-8bac301f152d";"us";"217";"2013-10-24";"44.05";"-92.5";"America/Chicago";"0"
"10942202";"d22f3bfa-814b-447f-89f2-d10f6904a272";"WordPress User Group Long Island";"https://www.meetup.com/d22f3bfa-814b-447f-89f2-d10f6904a272";"us";"180";"2013-11-02";"40.78";"-73.48";"America/New_York";"0"
"11298982";"wordpressbcn";"WordPress Barcelona";"https://www.meetup.com/wordpressbcn";"es";"5130";"2013-12-01";"41.4";"2.17";"Europe/Madrid";"1"
"11399912";"tucson-wordpress-meetup";"Tucson WordPress Meetup";"https://www.meetup.com/tucson-wordpress-meetup";"us";"1056";"2013-12-09";"32.22";"-110.97";"America/Phoenix";"1"
"11404322";"Rotterdam-WordPress-Meetup";"WordPress Meetup 010";"https://www.meetup.com/rotterdam-wordpress-meetup";"nl";"1077";"2013-12-09";"51.93";"4.48";"Europe/Brussels";"1"
"11409782";"d9dd887e-eac9-4648-b992-3835f8f0336f";"Central Wisconsin WordPress Meetup";"https://www.meetup.com/d9dd887e-eac9-4648-b992-3835f8f0336f";"us";"107";"2013-12-10";"44.61";"-90.19";"America/Chicago";"0"
"11412272";"Hamburg-WordPress-Meetup";"Hamburg WordPress Meetup";"https://www.meetup.com/hamburg-wordpress-meetup";"de";"1408";"2013-12-10";"53.55";"10";"Europe/Berlin";"1"
"11412182";"wpmeetup-potsdam";"WordPress Meetup Potsdam";"https://www.meetup.com/wpmeetup-potsdam";"de";"399";"2013-12-10";"52.4";"13.07";"Europe/Berlin";"1"
"11412102";"Berlin-WordPress-Meetup";"WordPress Meetup Berlin";"https://www.meetup.com/berlin-wordpress-meetup";"de";"2630";"2013-12-10";"52.52";"13.38";"Europe/Berlin";"1"
"11411152";"Antwerp-WordPress-Meetup";"WordPress Meetup Antwerp";"https://www.meetup.com/antwerp-wordpress-meetup";"be";"746";"2013-12-10";"51.22";"4.42";"Europe/Brussels";"1"
"11490442";"Wordpress-Tunisia";"Wordpress Tunisia";"https://www.meetup.com/wordpress-tunisia";"tn";"467";"2013-12-17";"35.84";"10.64";"Africa/Tunis";"1"
"11850112";"WordPress-Ljubljana";"WordPress Ljubljana";"https://www.meetup.com/wordpress-ljubljana";"si";"817";"2014-01-06";"46.06";"14.51";"Europe/Belgrade";"1"
"11970302";"wordpressmumbai";"Mumbai WordPress Meetup";"https://www.meetup.com/wordpressmumbai";"in";"5371";"2014-01-09";"18.96";"72.82";"Asia/Kolkata";"1"
"12003032";"Lagos-WordPress-Meetup-Group";"Lagos WordPress Community";"https://www.meetup.com/lagos-wordpress-meetup-group";"ng";"3200";"2014-01-10";"6.45";"3.47";"Africa/Lagos";"1"
"12006652";"Hannover-WordPress-Meetup";"Hannover WordPress Meetup";"https://www.meetup.com/hannover-wordpress-meetup";"de";"458";"2014-01-10";"52.4";"9.73";"Europe/Berlin";"1"
"12008812";"WPBelfast";"WP Belfast";"https://www.meetup.com/wpbelfast";"gb";"446";"2014-01-10";"54.6";"-5.93";"Europe/London";"1"
"12007402";"Jakarta-WordPress-Meetup";"Jakarta WordPress Meetup";"https://www.meetup.com/jakarta-wordpress-meetup";"id";"3890";"2014-01-10";"-6.18";"106.83";"Asia/Jakarta";"1"
"12142572";"WPinLille";"WPinLille";"https://www.meetup.com/wpinlille";"fr";"777";"2014-01-15";"50.64";"3.07";"Europe/Paris";"1"
"12473382";"1bee8a69-2a37-487c-9555-3e1d6d990015";"Cádiz WordPress Meetup";"https://www.meetup.com/1bee8a69-2a37-487c-9555-3e1d6d990015";"es";"597";"2014-01-26";"36.53";"-6.29";"Europe/Madrid";"0"
"12598422";"WordPress-Enthusiasts-in-Kolhapur";"WordPress Enthusiasts in Kolhapur";"https://www.meetup.com/wordpress-enthusiasts-in-kolhapur";"in";"281";"2014-01-29";"16.7";"74.22";"Asia/Kolkata";"1"
"12803952";"WordPress-Lahore";"WordPress Meetups Lahore";"https://www.meetup.com/wordpress-lahore";"pk";"6412";"2014-02-09";"31.56";"74.35";"Asia/Karachi";"1"
"12875502";"Saigon-WordPress";"Saigon WordPress";"https://www.meetup.com/saigon-wordpress";"vn";"1897";"2014-02-13";"10.78";"106.69";"Asia/Ho_Chi_Minh";"1"
"12875942";"wordpress-in-nice";"WordPress In Nice";"https://www.meetup.com/wordpress-in-nice";"fr";"1053";"2014-02-14";"43.7";"7.27";"Europe/Paris";"1"
"12888342";"WordPress-Meetup-Montpellier";"WordPress Meetup Montpellier";"https://www.meetup.com/wordpress-meetup-montpellier";"fr";"397";"2014-02-15";"43.61";"3.87";"Europe/Paris";"1"
"12912282";"WordPress-Serbia";"WordPress Serbia";"https://www.meetup.com/wordpress-serbia";"rs";"2105";"2014-02-16";"44.83";"20.5";"Europe/Belgrade";"1"
"12919892";"wptoulouse";"WordPress Toulouse";"https://www.meetup.com/wptoulouse";"fr";"1025";"2014-02-17";"43.62";"1.45";"Europe/Paris";"1"
"13056182";"dbd98638-412e-4290-97b5-5636e2f54f0e";"Okanagan WordPress Meetup";"https://www.meetup.com/dbd98638-412e-4290-97b5-5636e2f54f0e";"ca";"175";"2014-02-25";"50.29";"-119.28";"America/Vancouver";"0"
"13141152";"Southern-Illinois-WordPress-Meetup";"Southern Illinois WordPress Meetup";"https://www.meetup.com/southern-illinois-wordpress-meetup";"us";"439";"2014-03-03";"37.73";"-89.22";"America/Chicago";"1"
"13212652";"WordPress-Lyon-Meetup";"WordPress Lyon Meetup";"https://www.meetup.com/wordpress-lyon-meetup";"fr";"1114";"2014-03-07";"45.76";"4.83";"Europe/Paris";"1"
"13264362";"Tallahassee-WordPress-Meetup";"Tallahassee WordPress Meetup";"https://www.meetup.com/tallahassee-wordpress-meetup";"us";"215";"2014-03-10";"30.43";"-84.26";"America/New_York";"1"
"13282292";"Central-KY-WordPress-Users";"Central KY WordPress Group";"https://www.meetup.com/central-ky-wordpress-users";"us";"221";"2014-03-11";"38";"-84.53";"America/New_York";"1"
"13319732";"WordPress-Sevilla";"WordPress Sevilla";"https://www.meetup.com/wordpress-sevilla";"es";"2359";"2014-03-13";"37.4";"-5.98";"Europe/Madrid";"1"
"13358952";"wpchattanooga";"Chattanooga / Cleveland Area WordPress Meetup";"https://www.meetup.com/wpchattanooga";"us";"467";"2014-03-15";"35.05";"-85.31";"America/New_York";"1"
"13454122";"kochi-wordpress-meetup";"Kochi WordPress Meetup";"https://www.meetup.com/kochi-wordpress-meetup";"in";"2618";"2014-03-20";"10.02";"76.22";"Asia/Kolkata";"1"
"13511082";"nolawp";"New Orleans WordPress Meetup";"https://www.meetup.com/nolawp";"us";"476";"2014-03-24";"29.95";"-90.12";"America/Chicago";"1"
"13807422";"Surat-WordPress-Meetup";"Surat WordPress Meetup";"https://www.meetup.com/surat-wordpress-meetup";"in";"711";"2014-04-08";"21.2";"72.82";"Asia/Kolkata";"1"
"13941872";"wpbristol";"Bristol WordPress People";"https://www.meetup.com/wpbristol";"gb";"1077";"2014-04-16";"51.45";"-2.59";"Europe/London";"1"
"14134512";"Waco-WordPress-Meetup";"Waco WordPress Meetup";"https://www.meetup.com/waco-wordpress-meetup";"us";"162";"2014-04-27";"31.54";"-97.18";"America/Chicago";"1"
"14177862";"WordPress-Bern";"WordPress Bern";"https://www.meetup.com/wordpress-bern";"ch";"788";"2014-04-29";"46.95";"7.44";"Europe/Zurich";"1"
"14244862";"Burlington-WordPress-Meetup";"Burlington WordPress Meetup";"https://www.meetup.com/burlington-wordpress-meetup";"us";"350";"2014-05-03";"44.49";"-73.23";"America/New_York";"1"
"14333522";"WordPress-Edinburgh";"WordPress Edinburgh";"https://www.meetup.com/wordpress-edinburgh";"gb";"1300";"2014-05-08";"55.96";"-3.22";"Europe/London";"1"
"14363832";"cdf6afa6-4b65-4bf7-905b-c5ce74859b47";"Bellingham WordPress";"https://www.meetup.com/cdf6afa6-4b65-4bf7-905b-c5ce74859b47";"us";"516";"2014-05-10";"48.75";"-122.49";"America/Los_Angeles";"0"
"14526562";"WordPress-Charleston";"WordPress Charleston";"https://www.meetup.com/wordpress-charleston";"us";"484";"2014-05-18";"32.8";"-79.95";"America/New_York";"1"
"14613832";"b458d8a4-fa27-4814-b775-3064932e9036";"WordPress South Texas";"https://www.meetup.com/b458d8a4-fa27-4814-b775-3064932e9036";"us";"94";"2014-05-22";"26.21";"-98.24";"America/Chicago";"0"
"14610872";"WordPressGoiania";"WordPress Goiânia";"https://www.meetup.com/wordpressgoiania";"br";"270";"2014-05-22";"-16.72";"-49.26";"America/Sao_Paulo";"1"
"14620622";"Rochester-WordPress-Users-Meetup";"Rochester WordPress Users Meetup";"https://www.meetup.com/rochester-wordpress-users-meetup";"us";"768";"2014-05-23";"43.13";"-77.5";"America/New_York";"1"
"14758312";"WordPress-Sunshine-Coast";"WordPress Sunshine Coast";"https://www.meetup.com/wordpress-sunshine-coast";"au";"612";"2014-05-29";"-26.64";"153.07";"Australia/Brisbane";"1"
"14759122";"wpcuritiba";"Comunidade WordPress Curitiba";"https://www.meetup.com/wpcuritiba";"br";"2546";"2014-05-29";"-25.42";"-49.29";"America/Sao_Paulo";"1"
"14758812";"Pullman-Moscow-WordPress-Meetup";"Pullman / Moscow WordPress Meetup";"https://www.meetup.com/pullman-moscow-wordpress-meetup";"us";"136";"2014-05-30";"46.77";"-117.19";"America/Los_Angeles";"1"
"14837092";"wp-rio";"WordPress Meetup Rio de Janeiro";"https://www.meetup.com/wp-rio";"br";"1692";"2014-06-02";"-22.91";"-43.2";"America/Sao_Paulo";"1"
"14992102";"Chennai-WordPress-Meetup";"Chennai WordPress Meetup";"https://www.meetup.com/chennai-wordpress-meetup";"in";"1506";"2014-06-09";"13.09";"80.27";"Asia/Kolkata";"1"
"15199522";"WordPressGoa";"WordPress Goa";"https://www.meetup.com/wordpressgoa";"in";"969";"2014-06-19";"15.5";"73.81";"Asia/Kolkata";"1"
"15625692";"WPHamOnt";"Hamilton Ontario WordPress Meetup";"https://www.meetup.com/wphamont";"ca";"701";"2014-07-10";"43.26";"-79.87";"America/Toronto";"1"
"15832012";"WordPress-Kanpur";"Kanpur WordPress Meetup";"https://www.meetup.com/wordpress-kanpur";"in";"2024";"2014-07-19";"26.47";"80.33";"Asia/Kolkata";"1"
"16222262";"Pittsburgh-WordPress-Developers-Designers";"WordPress Pittsburgh";"https://www.meetup.com/pittsburgh-wordpress-developers-designers";"us";"1500";"2014-08-06";"40.45";"-79.98";"America/New_York";"1"
"16239112";"WordPress-Meetup-Nijmegen";"WordPress Meetup Nijmegen";"https://www.meetup.com/wordpress-meetup-nijmegen";"nl";"1516";"2014-08-07";"51.84";"5.85";"Europe/Brussels";"1"
"16278982";"wp-porto";"Porto WordPress Meetup";"https://www.meetup.com/wp-porto";"pt";"2352";"2014-08-09";"41.15";"-8.62";"Europe/Lisbon";"1"
"16287702";"wpjoinville";"Joinville WordPress Meetup";"https://www.meetup.com/wpjoinville";"br";"598";"2014-08-09";"-26.32";"-48.84";"America/Sao_Paulo";"1"
"16336662";"wordpressdsm";"WordPress DSM";"https://www.meetup.com/wordpressdsm";"us";"334";"2014-08-12";"41.59";"-93.62";"America/Chicago";"1"
"16430072";"Wilmington-WordPress-Meetup";"Wilmington WordPress Meetup";"https://www.meetup.com/wilmington-wordpress-meetup";"us";"591";"2014-08-16";"34.23";"-77.94";"America/New_York";"1"
"16515032";"Lehigh-Valley-WordPress-Meetup";"Lehigh Valley WordPress Meetup";"https://www.meetup.com/lehigh-valley-wordpress-meetup";"us";"602";"2014-08-20";"40.62";"-75.41";"America/New_York";"1"
"16611692";"Cincinnati-WordPress-Meetup";"Cincinnati WordPress Meetup";"https://www.meetup.com/cincinnati-wordpress-meetup";"us";"870";"2014-08-26";"39.11";"-84.5";"America/New_York";"1"
"16942642";"South-Sound-WordPress-Meetup";"South Sound WordPress Meetup";"https://www.meetup.com/south-sound-wordpress-meetup";"us";"647";"2014-09-11";"47.29";"-122.62";"America/Los_Angeles";"1"
"17086272";"Nha-Trang-WordPress";"Nha Trang WordPress";"https://www.meetup.com/nha-trang-wordpress";"vn";"301";"2014-09-18";"12.25";"109.19";"Asia/Ho_Chi_Minh";"1"
"17280482";"WordPress-Stockholm";"WordPress Stockholm";"https://www.meetup.com/wordpress-stockholm";"se";"2190";"2014-09-29";"59.33";"18.07";"Europe/Berlin";"1"
"17310752";"WordPress-Meetup-Utrecht";"WordPress Meetup Utrecht";"https://www.meetup.com/wordpress-meetup-utrecht";"nl";"1237";"2014-09-30";"52.1";"5.11";"Europe/Brussels";"1"
"17329602";"tampere-wordpress-meetup";"Tampere WordPress Meetup";"https://www.meetup.com/tampere-wordpress-meetup";"fi";"524";"2014-09-30";"61.52";"23.76";"Europe/Helsinki";"1"
"17352872";"Bucharest-WordPress-Meetup";"Bucharest WordPress Meetup";"https://www.meetup.com/bucharest-wordpress-meetup";"ro";"1586";"2014-10-02";"44.44";"26.1";"Europe/Bucharest";"1"
"17409412";"St-Petersburg-WordPress-Meetup";"Saint-Petersburg WordPress Community";"https://www.meetup.com/st-petersburg-wordpress-meetup";"ru";"712";"2014-10-05";"59.93";"30.32";"Europe/Moscow";"1"
"17721062";"Bhubaneswar-WordPress-Meetup";"Bhubaneswar WordPress Meetup";"https://www.meetup.com/bhubaneswar-wordpress-meetup";"in";"2108";"2014-10-19";"20.27";"85.84";"Asia/Kolkata";"1"
"17818122";"WordPress-London";"WordPress London Canada";"https://www.meetup.com/wordpress-london";"ca";"392";"2014-10-23";"43.02";"-81.21";"America/Toronto";"1"
"17928922";"wpguate";"Guatemala WordPress Meetup";"https://www.meetup.com/wpguate";"gt";"237";"2014-10-29";"14.63";"-90.55";"America/Guatemala";"1"
"18082242";"budapest-wordpress-meetup";"Budapest WordPress Meetup";"https://www.meetup.com/budapest-wordpress-meetup";"hu";"674";"2014-11-05";"47.51";"19.08";"Europe/Budapest";"1"
"18187087";"Udaipur-WordPress-Meetup";"Udaipur WordPress Meetup";"https://www.meetup.com/udaipur-wordpress-meetup";"in";"381";"2014-11-13";"24.58";"73.69";"Asia/Kolkata";"1"
"18190962";"pune-wordpress-knowledge-exchange";"Pune WordPress Meetup";"https://www.meetup.com/pune-wordpress-knowledge-exchange";"in";"3786";"2014-11-15";"18.53";"73.84";"Asia/Kolkata";"1"
"18195599";"Munchen-WordPress-Meetup";"München WordPress Meetup";"https://www.meetup.com/munchen-wordpress-meetup";"de";"1221";"2014-11-17";"48.14";"11.58";"Europe/Berlin";"1"
"18196763";"WordPressVix";"WordPress Vitória Meetup";"https://www.meetup.com/wordpressvix";"br";"379";"2014-11-17";"-20.31";"-40.31";"America/Sao_Paulo";"1"
"18209197";"wordpress-jaipur";"WordPress Jaipur";"https://www.meetup.com/wordpress-jaipur";"in";"1833";"2014-11-23";"26.92";"75.8";"Asia/Kolkata";"1"
"18297561";"wpmeetup-frankfurt";"WordPress Meetup Frankfurt #wpFRA";"https://www.meetup.com/wpmeetup-frankfurt";"de";"538";"2015-01-04";"50.12";"8.68";"Europe/Berlin";"1"
"18334643";"f59e7f78-259b-44e7-a7b3-09432a910e94";"Shropshire WordPress Meetup";"https://www.meetup.com/f59e7f78-259b-44e7-a7b3-09432a910e94";"gb";"130";"2015-01-14";"52.71";"-2.75";"Europe/London";"0"
"18357204";"WordPress-Meetup-Marbella";"WordPress Meetup Marbella";"https://www.meetup.com/wordpress-meetup-marbella";"es";"994";"2015-01-20";"36.52";"-4.89";"Europe/Madrid";"1"
"18360090";"95b9be5c-de7e-4e56-b55c-17c5e4d653de";"New Castle County Delaware WordPress Meetup";"https://www.meetup.com/95b9be5c-de7e-4e56-b55c-17c5e4d653de";"us";"219";"2015-01-21";"39.82";"-75.51";"America/New_York";"0"
"18363006";"WordPress-OX";"WPOX";"https://www.meetup.com/wordpress-ox";"gb";"411";"2015-01-21";"51.74";"-1.24";"Europe/London";"1"
"18369716";"WordPress-Meetup-Twente";"WordPress Meetup Twente";"https://www.meetup.com/wordpress-meetup-twente";"nl";"417";"2015-01-23";"52.22";"6.89";"Europe/Brussels";"1"
"18377017";"WordPress-Murcia";"WordPress Murcia";"https://www.meetup.com/wordpress-murcia";"es";"857";"2015-01-25";"37.98";"-1.13";"Europe/Madrid";"1"
"18386200";"bf4a4c74-fa7c-481e-bd78-bcedd7438bf0";"WordPress Cantabria";"https://www.meetup.com/bf4a4c74-fa7c-481e-bd78-bcedd7438bf0";"es";"234";"2015-01-27";"43.46";"-3.81";"Europe/Madrid";"0"
"18385969";"WordPress-Bilbao";"WordPress Bilbao";"https://www.meetup.com/wordpress-bilbao";"es";"950";"2015-01-27";"43.25";"-2.93";"Europe/Madrid";"1"
"18388240";"Marseille-WordPress-Meetup";"Marseille WordPress Meetup";"https://www.meetup.com/marseille-wordpress-meetup";"fr";"1161";"2015-01-28";"43.31";"5.37";"Europe/Paris";"1"
"18392412";"wordpress-rennes";"WordPress Rennes";"https://www.meetup.com/wordpress-rennes";"fr";"357";"2015-01-29";"48.11";"-1.68";"Europe/Paris";"1"
"18425118";"WordPress-Meetup-Fryslan";"WordPress Meetup Fryslân";"https://www.meetup.com/wordpress-meetup-fryslan";"nl";"413";"2015-02-10";"53.21";"5.79";"Europe/Brussels";"1"
"18457433";"03b1337d-bb21-46d6-bbbf-c7d592e3be49";"Leeward WordPress Group";"https://www.meetup.com/03b1337d-bb21-46d6-bbbf-c7d592e3be49";"us";"106";"2015-02-24";"21.33";"-158.09";"Pacific/Honolulu";"0"
"18476667";"wordpress-valencia-meetup";"WordPress Valencia";"https://www.meetup.com/wordpress-valencia-meetup";"es";"2676";"2015-03-04";"39.48";"-0.39";"Europe/Madrid";"1"
"18480085";"mallorca-wordpress-meetup";"WordPress Mallorca";"https://www.meetup.com/mallorca-wordpress-meetup";"es";"539";"2015-03-05";"39.57";"2.65";"Europe/Madrid";"1"
"18494920";"WordPress-Mexico";"WordPress Mexico";"https://www.meetup.com/wordpress-mexico";"mx";"2975";"2015-03-12";"19.43";"-99.14";"America/Mexico_City";"1"
"18496871";"WordPressDownstate";"WordPress Downstate";"https://www.meetup.com/wordpressdownstate";"us";"394";"2015-03-12";"40.11";"-88.25";"America/Chicago";"1"
"18518613";"WordPress-033";"Amersfoort WordPress Meetup #WPM033";"https://www.meetup.com/wordpress-033";"nl";"203";"2015-03-24";"52.16";"5.38";"Europe/Brussels";"1"
"18526184";"5af704d0-8f02-46fa-a052-cdc804707cdf";"NY Southern Tier WordPress Meetup";"https://www.meetup.com/5af704d0-8f02-46fa-a052-cdc804707cdf";"us";"26";"2015-03-30";"42.45";"-78.09";"America/New_York";"0"
"18533249";"65990d2d-3c41-450b-b70c-4738e5be9c1e";"Gauteng WordPress Network";"https://www.meetup.com/65990d2d-3c41-450b-b70c-4738e5be9c1e";"za";"756";"2015-04-04";"-26";"28.13";"Africa/Johannesburg";"0"
"18537568";"Huntsville-WordPress-Meetup";"Huntsville WordPress Meetup";"https://www.meetup.com/huntsville-wordpress-meetup";"us";"488";"2015-04-07";"34.73";"-86.57";"America/Chicago";"1"
"18540535";"wpmeetup-stuttgart";"WordPress Meetup Stuttgart";"https://www.meetup.com/wpmeetup-stuttgart";"de";"1209";"2015-04-09";"48.79";"9.19";"Europe/Berlin";"1"
"18556372";"WordPress-Singapore";"WordPress Singapore";"https://www.meetup.com/wordpress-singapore";"sg";"2662";"2015-04-20";"1.3";"103.85";"Asia/Kuala_Lumpur";"1"
"18559246";"WordPress-Cape-Town";"WordPress Cape Town";"https://www.meetup.com/wordpress-cape-town";"za";"2362";"2015-04-22";"-33.93";"18.46";"Africa/Johannesburg";"1"
"18560527";"16ada4e3-c1f4-488c-b5a0-8614d628b274";"WordPress Córdoba";"https://www.meetup.com/16ada4e3-c1f4-488c-b5a0-8614d628b274";"ar";"569";"2015-04-23";"-31.4";"-64.19";"America/Argentina/Cordoba";"0"
"18567920";"wpkyiv";"WordPress Kyiv";"https://www.meetup.com/wpkyiv";"ua";"1929";"2015-04-28";"50.44";"30.52";"Europe/Kiev";"1"
"18592203";"Colombo-WordPress-Meetup";"Colombo WordPress Meetup";"https://www.meetup.com/colombo-wordpress-meetup";"lk";"2190";"2015-05-12";"6.93";"79.85";"Asia/Colombo";"1"
"18597700";"Barletta-WordPress-Meetup";"Barletta WordPress Meetup";"https://www.meetup.com/barletta-wordpress-meetup";"it";"192";"2015-05-14";"41.32";"16.28";"Europe/Rome";"1"
"18606326";"wordpress-meetup-cesena";"WordPress Meetup Cesena";"https://www.meetup.com/wordpress-meetup-cesena";"it";"529";"2015-05-18";"44.14";"12.24";"Europe/Rome";"1"
"18609997";"Santiago-WordPress-Meetup";"Santiago WordPress Meetup";"https://www.meetup.com/santiago-wordpress-meetup";"cl";"1303";"2015-05-19";"-33.46";"-70.64";"America/Santiago";"1"
"18615179";"wordpresstoledo";"WordPress Toledo";"https://www.meetup.com/wordpresstoledo";"us";"431";"2015-05-21";"41.7";"-83.6";"America/New_York";"1"
"18615851";"wordpress-meetup-torino";"WordPress Meetup Torino";"https://www.meetup.com/wordpress-meetup-torino";"it";"1697";"2015-05-21";"45.05";"7.67";"Europe/Rome";"1"
"18627370";"wpperu-lima";"WordPress Perú - Lima";"https://www.meetup.com/wpperu-lima";"pe";"2301";"2015-05-26";"-12.07";"-77.05";"America/Lima";"1"
"18635703";"434e2424-1307-4513-86af-c60cd992e04a";"Brattleboro WordPress Meetup";"https://www.meetup.com/434e2424-1307-4513-86af-c60cd992e04a";"us";"155";"2015-05-30";"42.84";"-72.69";"America/New_York";"0"
"18651618";"WP-Fayetteville";"WordPress Fayetteville Meetup Group";"https://www.meetup.com/wp-fayetteville";"us";"817";"2015-06-05";"36.05";"-94.14";"America/Chicago";"1"
"18667820";"WordPress-Meetup-Karlsruhe";"WordPress Meetup Karlsruhe";"https://www.meetup.com/wordpress-meetup-karlsruhe";"de";"678";"2015-06-12";"49";"8.4";"Europe/Berlin";"1"
"18672542";"south-jersey-wordpress-meetup";"South Jersey WordPress Meetup";"https://www.meetup.com/south-jersey-wordpress-meetup";"us";"389";"2015-06-14";"40.03";"-74.88";"America/New_York";"1"
"18683586";"34781e3c-5424-494e-a8a1-ed239e55f06f";"WordPress Sorocaba Meetup Group";"https://www.meetup.com/34781e3c-5424-494e-a8a1-ed239e55f06f";"br";"361";"2015-06-19";"-23.49";"-47.47";"America/Sao_Paulo";"0"
"18703768";"WordPress-Joburg";"WordPress Jo'burg";"https://www.meetup.com/wordpress-joburg";"za";"1140";"2015-06-27";"-26.19";"28.04";"Africa/Johannesburg";"1"
"18704128";"a12c221b-4f75-4348-b8d5-51553e2df354";"Aveiro WordPress Meetup";"https://www.meetup.com/a12c221b-4f75-4348-b8d5-51553e2df354";"pt";"328";"2015-06-28";"40.65";"-8.66";"Europe/Lisbon";"0"
"18707185";"WordPress-Meetup-Chiclana";"WordPress Meetup Chiclana";"https://www.meetup.com/wordpress-meetup-chiclana";"es";"518";"2015-06-29";"36.42";"-6.15";"Europe/Madrid";"1"
"18709654";"WordPress-Meetup-Bologna";"WordPress Meetup Bologna";"https://www.meetup.com/wordpress-meetup-bologna";"it";"798";"2015-06-30";"44.49";"11.34";"Europe/Rome";"1"
"18715870";"WordPressLatvia";"WordPress Latvia";"https://www.meetup.com/wordpresslatvia";"lv";"456";"2015-07-02";"56.97";"24.13";"Europe/Riga";"1"
"18725324";"Accra-WordPress-Meetup";"Accra WordPress Meetup";"https://www.meetup.com/accra-wordpress-meetup";"gh";"2116";"2015-07-07";"5.56";"-0.2";"Africa/Abidjan";"1"
"18725278";"sialkot-wordpress-club";"Sialkot WordPress Club";"https://www.meetup.com/sialkot-wordpress-club";"pk";"665";"2015-07-07";"32.52";"74.55";"Asia/Karachi";"1"
"18724423";"wordpress-meetup-brescia";"WordPress Meetup Brescia";"https://www.meetup.com/wordpress-meetup-brescia";"it";"879";"2015-07-07";"45.55";"10.25";"Europe/Rome";"1"
"18728210";"Southern-Utah-WordPress-Meetup";"Southern Utah WordPress Meetup";"https://www.meetup.com/southern-utah-wordpress-meetup";"us";"261";"2015-07-08";"37.08";"-113.59";"America/Denver";"1"
"18730624";"Athens-WordPress-Meetup";"Athens WordPress Meetup";"https://www.meetup.com/athens-wordpress-meetup";"gr";"1537";"2015-07-09";"37.98";"23.73";"Europe/Athens";"1"
"18730875";"e49d6483-7153-40e2-b916-c59daf145385";"The Muskoka WordPress Group";"https://www.meetup.com/e49d6483-7153-40e2-b916-c59daf145385";"ca";"55";"2015-07-09";"45.04";"-79.31";"America/Toronto";"0"
"18739756";"Bournemouth-WordPress-Group";"WordPress Bournemouth";"https://www.meetup.com/bournemouth-wordpress-group";"gb";"587";"2015-07-13";"50.73";"-1.88";"Europe/London";"1"
"18746275";"Lusaka-WordPress-Meetup";"Lusaka WordPress Meetup";"https://www.meetup.com/lusaka-wordpress-meetup";"zm";"646";"2015-07-16";"-15.41";"28.29";"Africa/Maputo";"1"
"18751401";"22aecbd7-b52c-4a0e-9139-bd05081016a2";"WordPress Paraíba";"https://www.meetup.com/22aecbd7-b52c-4a0e-9139-bd05081016a2";"br";"233";"2015-07-19";"-7.12";"-34.86";"America/Fortaleza";"0"
"18758239";"Zwolle-WordPress-Meetup";"WordPress Meetup Zwolle";"https://www.meetup.com/zwolle-wordpress-meetup";"nl";"956";"2015-07-21";"52.52";"6.09";"Europe/Brussels";"1"
"18761096";"wordpress-meetup-genova";"WordPress Meetup Genova";"https://www.meetup.com/wordpress-meetup-genova";"it";"523";"2015-07-22";"44.42";"8.95";"Europe/Rome";"1"
"18771868";"wordpress-alicante";"WordPress Alicante";"https://www.meetup.com/wordpress-alicante";"es";"1465";"2015-07-26";"38.35";"-0.48";"Europe/Madrid";"1"
"18776022";"wphelsinki";"WordPress Helsinki";"https://www.meetup.com/wphelsinki";"fi";"1599";"2015-07-27";"60.17";"24.94";"Europe/Helsinki";"1"
"18780172";"a2cd5f9f-7f4a-4532-b222-e53cfbcda5f8";"Macon WordPress Meetup";"https://www.meetup.com/a2cd5f9f-7f4a-4532-b222-e53cfbcda5f8";"us";"200";"2015-07-28";"32.83";"-83.63";"America/New_York";"0"
"18783603";"wordpress-new-delhi";"WordPress Delhi NCR Meetup Group";"https://www.meetup.com/wordpress-new-delhi";"in";"8647";"2015-07-29";"28.67";"77.21";"Asia/Kolkata";"1"
"18783556";"WordPress-Halifax";"WordPress Halifax";"https://www.meetup.com/wordpress-halifax";"ca";"1139";"2015-07-29";"44.64";"-63.57";"America/Halifax";"1"
"18785774";"bengaluruwordpress";"Bengaluru WordPress";"https://www.meetup.com/bengaluruwordpress";"in";"3168";"2015-07-30";"12.97";"77.56";"Asia/Kolkata";"1"
"18796227";"Toowoomba-WordPress-Meetup";"Toowoomba WordPress Meetup";"https://www.meetup.com/toowoomba-wordpress-meetup";"au";"222";"2015-08-02";"-27.56";"151.96";"Australia/Brisbane";"1"
"18809924";"WordPress-Istanbul";"WordPress Istanbul";"https://www.meetup.com/wordpress-istanbul";"tr";"1623";"2015-08-07";"41.01";"28.96";"Europe/Istanbul";"1"
"18820215";"larissa-wordpress-meetup";"Larissa WordPress Meetup";"https://www.meetup.com/larissa-wordpress-meetup";"gr";"617";"2015-08-10";"39.64";"22.42";"Europe/Athens";"1"
"18827401";"BakoWP";"Bakersfield WordPress";"https://www.meetup.com/bakowp";"us";"861";"2015-08-12";"35.38";"-119.01";"America/Los_Angeles";"1"
"18828960";"Olympia-WordPress-Meetup-OlyWP";"Olympia WordPress Meetup (OlyWP)";"https://www.meetup.com/olympia-wordpress-meetup-olywp";"us";"536";"2015-08-13";"46.99";"-122.87";"America/Los_Angeles";"1"
"18833192";"wordpress-meetup-lecce";"WordPress Meetup Lecce";"https://www.meetup.com/wordpress-meetup-lecce";"it";"352";"2015-08-14";"40.35";"18.17";"Europe/Rome";"1"
"18853376";"WordPressMedellin";"WordPress Medellín";"https://www.meetup.com/wordpressmedellin";"co";"2629";"2015-08-21";"6.25";"-75.59";"America/Bogota";"1"
"18857660";"wordup";"WordUp Warszawa";"https://www.meetup.com/wordup";"pl";"1066";"2015-08-22";"52.26";"21.02";"Europe/Warsaw";"1"
"18886670";"wpperu-cusco";"WordPress Perú - Cusco";"https://www.meetup.com/wpperu-cusco";"pe";"411";"2015-08-31";"-13.52";"-71.99";"America/Lima";"1"
"18888955";"Cambodia-WordPress-Community";"Cambodia WordPress Community";"https://www.meetup.com/cambodia-wordpress-community";"kh";"857";"2015-09-01";"11.57";"104.92";"Asia/Bangkok";"1"
"18911298";"bec097c6-3adb-4cbc-91cc-a6bea048013e";"Beckley WordPress Group";"https://www.meetup.com/bec097c6-3adb-4cbc-91cc-a6bea048013e";"us";"181";"2015-09-08";"37.79";"-81.19";"America/New_York";"0"
"18911580";"128578d3-9ab7-4e3a-a572-8f2da9592a20";"Durban WordPress Meetup";"https://www.meetup.com/128578d3-9ab7-4e3a-a572-8f2da9592a20";"za";"908";"2015-09-08";"-29.87";"30.99";"Africa/Johannesburg";"0"
"18914421";"Nashik-WordPress-Meetup";"Nashik WordPress Meetup";"https://www.meetup.com/nashik-wordpress-meetup";"in";"444";"2015-09-09";"20.01";"73.78";"Asia/Kolkata";"1"
"18988994";"wordpress-bhopal";"WordPress Bhopal";"https://www.meetup.com/wordpress-bhopal";"in";"1334";"2015-10-02";"23.24";"77.4";"Asia/Kolkata";"1"
"19005669";"North-Fulton-WordPress-Meetup";"North Fulton WordPress Meetup";"https://www.meetup.com/north-fulton-wordpress-meetup";"us";"453";"2015-10-07";"34.1";"-84.26";"America/New_York";"1"
"19004679";"Arnprior-WordPress-Group";"Arnprior WordPress Group";"https://www.meetup.com/arnprior-wordpress-group";"ca";"49";"2015-10-07";"45.44";"-76.36";"America/Toronto";"1"
"19008782";"5a0d2889-6fb5-4787-9b2c-538573621dc2";"South Okanagan WordPress Meetup";"https://www.meetup.com/5a0d2889-6fb5-4787-9b2c-538573621dc2";"ca";"112";"2015-10-08";"49.17";"-119.55";"America/Vancouver";"0"
"19010313";"Bratislava-WordPress-Community";"Bratislava WordPress Community";"https://www.meetup.com/bratislava-wordpress-community";"sk";"522";"2015-10-09";"48.16";"17.13";"Europe/Prague";"1"
"19029458";"WordPress-Meetup-Grunn";"WordPress Meetup Grunn";"https://www.meetup.com/wordpress-meetup-grunn";"nl";"594";"2015-10-15";"53.23";"6.57";"Europe/Brussels";"1"
"19034403";"Haarlem-WordPress-Meetup";"Haarlem WordPress Meetup";"https://www.meetup.com/haarlem-wordpress-meetup";"nl";"272";"2015-10-16";"52.39";"4.62";"Europe/Brussels";"1"
"19040752";"Jyvaskyla-WordPress-Meetup";"Jyväskylä WordPress Meetup";"https://www.meetup.com/jyvaskyla-wordpress-meetup";"fi";"251";"2015-10-19";"62.26";"25.75";"Europe/Helsinki";"1"
"19045704";"wordpress-cambridge";"WordPress Cambridge Meetup";"https://www.meetup.com/wordpress-cambridge";"gb";"1579";"2015-10-20";"52.21";"0.13";"Europe/London";"1"
"19081898";"wordpress-montclair-meetup";"WordPress Montclair Meetup";"https://www.meetup.com/wordpress-montclair-meetup";"us";"2127";"2015-11-02";"40.81";"-74.22";"America/New_York";"1"
"19090526";"wpsaobento";"São Bento do Sul WordPress Meetup";"https://www.meetup.com/wpsaobento";"br";"141";"2015-11-04";"-26.22";"-49.42";"America/Sao_Paulo";"1"
"19111729";"WordPress-Jordan";"WordPress Jordan";"https://www.meetup.com/wordpress-jordan";"jo";"155";"2015-11-11";"31.96";"35.95";"Asia/Amman";"1"
"19114201";"wpzaragoza";"WordPress Zaragoza";"https://www.meetup.com/wpzaragoza";"es";"1395";"2015-11-12";"41.65";"-0.89";"Europe/Madrid";"1"
"19120551";"Heraklion-WordPress-Meetup";"Heraklion WordPress Meetup";"https://www.meetup.com/heraklion-wordpress-meetup";"gr";"461";"2015-11-14";"35.33";"25.13";"Europe/Athens";"1"
"19126629";"nagpur-wordpress-meetup";"Nagpur WordPress Meetup";"https://www.meetup.com/nagpur-wordpress-meetup";"in";"1040";"2015-11-16";"21.16";"79.08";"Asia/Kolkata";"1"
"19134916";"CairoWP";"WordPress Cairo";"https://www.meetup.com/cairowp";"eg";"2214";"2015-11-18";"30.06";"31.25";"Africa/Cairo";"1"
"19133834";"Southcoast-WordPress-Meetup";"Southcoast WordPress Meetup";"https://www.meetup.com/southcoast-wordpress-meetup";"us";"219";"2015-11-18";"41.64";"-70.94";"America/New_York";"1"
"19139611";"64c9ddc6-2955-4836-8f5e-1bdd4244281e";"WordPress Meetup Poitou";"https://www.meetup.com/64c9ddc6-2955-4836-8f5e-1bdd4244281e";"fr";"126";"2015-11-20";"46.32";"-0.47";"Europe/Paris";"0"
"19173227";"wpextremadura";"Meetup de WordPress  en Caceres (Extremadura)";"https://www.meetup.com/wpextremadura";"es";"502";"2015-12-01";"39.47";"-6.38";"Europe/Madrid";"1"
"19171830";"WordPress-Majadahonda";"WordPress Majadahonda";"https://www.meetup.com/wordpress-majadahonda";"es";"255";"2015-12-01";"40.47";"-3.87";"Europe/Madrid";"1"
"19177772";"WordPress-Gijon";"WordPress Gijón";"https://www.meetup.com/wordpress-gijon";"es";"225";"2015-12-03";"43.53";"-5.67";"Europe/Madrid";"1"
"19211014";"wordpress-collado-villalba-meetup";"WordPress Collado Villalba";"https://www.meetup.com/wordpress-collado-villalba-meetup";"es";"586";"2015-12-14";"40.64";"-4";"Europe/Madrid";"1"
"19216742";"ba504852-6b86-43f1-ad0b-97ee50c0038e";"Meetup WordPress de Braga";"https://www.meetup.com/ba504852-6b86-43f1-ad0b-97ee50c0038e";"pt";"210";"2015-12-16";"41.55";"-8.43";"Europe/Lisbon";"0"
"19217622";"meetup-wordpress-floripa";"Meetup WordPress Floripa";"https://www.meetup.com/meetup-wordpress-floripa";"br";"1819";"2015-12-16";"-27.6";"-48.54";"America/Sao_Paulo";"1"
"19220445";"8b5ef40a-2f15-4635-8fad-4034b53bb2e0";"Auburn WordPress Meetup";"https://www.meetup.com/8b5ef40a-2f15-4635-8fad-4034b53bb2e0";"us";"116";"2015-12-17";"32.6";"-85.47";"America/Chicago";"0"
"19220483";"Antelope-Valley-WordPress-Meetup";"Antelope Valley WordPress Meetup";"https://www.meetup.com/antelope-valley-wordpress-meetup";"us";"133";"2015-12-17";"34.69";"-118.14";"America/Los_Angeles";"1"
"19222082";"Reggio-Emilia-WordPress-Meetup";"Reggio Emilia WordPress Meetup";"https://www.meetup.com/reggio-emilia-wordpress-meetup";"it";"379";"2015-12-18";"44.73";"10.63";"Europe/Rome";"1"
"19234882";"WordPress-Karachi-Meetup";"WordPress Karachi Meetup";"https://www.meetup.com/wordpress-karachi-meetup";"pk";"2750";"2015-12-23";"24.86";"67.01";"Asia/Karachi";"1"
"19281953";"bremen-wordpress-meetup-group";"Bremen WordPress Meetup";"https://www.meetup.com/bremen-wordpress-meetup-group";"de";"316";"2016-01-05";"53.08";"8.81";"Europe/Berlin";"1"
"19295318";"Turku-WordPress-Meetup";"Turku WordPress Meetup";"https://www.meetup.com/turku-wordpress-meetup";"fi";"331";"2016-01-07";"60.45";"22.25";"Europe/Helsinki";"1"
"19306560";"wpsanjose";"WordPress Meetup San José";"https://www.meetup.com/wpsanjose";"cr";"3924";"2016-01-09";"9.93";"-84.08";"America/Costa_Rica";"1"
"19322655";"Janesville-Area-WordPress-Users";"Janesville Area WordPress Users";"https://www.meetup.com/janesville-area-wordpress-users";"us";"259";"2016-01-11";"42.69";"-89.05";"America/Chicago";"1"
"19361102";"Yaounde-WordPress-Meetup";"Yaoundé WordPress Meetup";"https://www.meetup.com/yaounde-wordpress-meetup";"cm";"730";"2016-01-18";"3.87";"11.52";"Africa/Lagos";"1"
"19413295";"wpfortaleza";"WordPress Fortaleza Meetup";"https://www.meetup.com/wpfortaleza";"br";"770";"2016-01-22";"-3.78";"-38.59";"America/Fortaleza";"1"
"19448040";"Wordpress_skg";"Thessaloníki WordPress Meetup";"https://www.meetup.com/wordpress_skg";"gr";"1682";"2016-01-27";"40.64";"22.94";"Europe/Athens";"1"
"19452700";"WordPress-Meetup-San-Cristobal-Venezuela";"WordPress Meetup San Cristobal, Venezuela";"https://www.meetup.com/wordpress-meetup-san-cristobal-venezuela";"ve";"431";"2016-01-28";"7.76";"-72.23";"America/Caracas";"1"
"19475942";"Aurora-WordPress";"Aurora WordPress";"https://www.meetup.com/aurora-wordpress";"us";"156";"2016-01-31";"39.62";"-104.79";"America/Denver";"1"
"19484041";"Managua-WordPress-Meetup";"Managua WordPress Meetup";"https://www.meetup.com/managua-wordpress-meetup";"ni";"1022";"2016-02-01";"12.15";"-86.27";"America/Managua";"1"
"19507032";"ibadan-wordpress-meetup";"Ibadan WordPress Meetup";"https://www.meetup.com/ibadan-wordpress-meetup";"ng";"238";"2016-02-04";"7.38";"3.93";"Africa/Lagos";"1"
"19539463";"WPAntigua";"Antigua WordPress Meetup";"https://www.meetup.com/wpantigua";"gt";"435";"2016-02-08";"14.56";"-90.74";"America/Guatemala";"1"
"19537461";"meetup-wordpress-aix-en-provence";"WordPress (W) Aix-en-Provence";"https://www.meetup.com/meetup-wordpress-aix-en-provence";"fr";"831";"2016-02-08";"43.53";"5.44";"Europe/Paris";"1"
"19544143";"9188e4a0-5d10-4fcb-b204-01200d4b2e8b";"Freiburg im Breisgau WordPress Meetup";"https://www.meetup.com/9188e4a0-5d10-4fcb-b204-01200d4b2e8b";"de";"71";"2016-02-09";"47.99";"7.85";"Europe/Berlin";"0"
"19572346";"Ghent-WordPress-Meetup";"Ghent WordPress Meetup";"https://www.meetup.com/ghent-wordpress-meetup";"be";"149";"2016-02-15";"51.05";"3.72";"Europe/Brussels";"1"
"19599094";"Kingston-WordPress-Meetup";"Kingston WordPress Meetup";"https://www.meetup.com/kingston-wordpress-meetup";"jm";"815";"2016-02-20";"17.98";"-76.8";"America/Jamaica";"1"
"19598588";"Rockford-WordPress-Meetup";"Rockford WordPress Meetup";"https://www.meetup.com/rockford-wordpress-meetup";"us";"134";"2016-02-20";"42.3";"-89.13";"America/Chicago";"1"
"19618155";"WordPressGranollers";"WordPress Granollers";"https://www.meetup.com/wordpressgranollers";"es";"733";"2016-02-24";"41.61";"2.28";"Europe/Madrid";"1"
"19701409";"ahmedabad-wp-meetup";"Ahmedabad WordPress Meetup";"https://www.meetup.com/ahmedabad-wp-meetup";"in";"5875";"2016-03-13";"23.03";"72.58";"Asia/Kolkata";"1"
"19705535";"WordPress-Norrkoping";"WordPress Norrköping";"https://www.meetup.com/wordpress-norrkoping";"se";"302";"2016-03-14";"58.6";"16.17";"Europe/Berlin";"1"
"19713437";"Oldham-WordPress-Meetup";"Oldham WordPress Meetup";"https://www.meetup.com/oldham-wordpress-meetup";"gb";"221";"2016-03-15";"53.55";"-2.12";"Europe/London";"1"
"19715224";"durham-wordpress-meetup";"Durham Region WordPress Meetup - WP Durham";"https://www.meetup.com/durham-wordpress-meetup";"ca";"443";"2016-03-16";"43.92";"-78.82";"America/Toronto";"1"
"19726582";"Leipzig-WordPress-Meetup";"WordPress Meetup Leipzig";"https://www.meetup.com/leipzig-wordpress-meetup";"de";"877";"2016-03-18";"51.35";"12.4";"Europe/Berlin";"1"
"19743559";"f820f6b4-9c3a-4597-840a-2820e97b9835";"Vestfold WordPress Meetup";"https://www.meetup.com/f820f6b4-9c3a-4597-840a-2820e97b9835";"no";"86";"2016-03-22";"59.27";"10.42";"Europe/Berlin";"0"
"19743516";"Kuala-Lumpur-WordPress-Meetup";"Kuala Lumpur WordPress Meetup";"https://www.meetup.com/kuala-lumpur-wordpress-meetup";"my";"1728";"2016-03-22";"3.16";"101.71";"Asia/Kuala_Lumpur";"1"
"19748036";"sylhet-wordpress-meetup";"Sylhet WordPress Meetup";"https://www.meetup.com/sylhet-wordpress-meetup";"bd";"317";"2016-03-23";"24.9";"91.87";"Asia/Dhaka";"1"
"19750483";"wordpresspb";"WordPress Palm Beach";"https://www.meetup.com/wordpresspb";"us";"741";"2016-03-24";"26.71";"-80.06";"America/New_York";"1"
"19756575";"meetup-wordpress-santa-cruz-de-tenerife";"Meetup WordPress -Santa Cruz de Tenerife";"https://www.meetup.com/meetup-wordpress-santa-cruz-de-tenerife";"es";"848";"2016-03-25";"28.47";"-16.25";"Atlantic/Canary";"1"
"19766109";"WordPress-Guayaquil-Meetup";"WordPress Guayaquil Meetup";"https://www.meetup.com/wordpress-guayaquil-meetup";"ec";"920";"2016-03-28";"-2.21";"-79.9";"America/Guayaquil";"1"
"19773145";"f5131d7e-bb94-40ab-bcc3-f5aa3b5d120f";"Nuuk WordPress Meetup";"https://www.meetup.com/f5131d7e-bb94-40ab-bcc3-f5aa3b5d120f";"gl";"36";"2016-03-29";"64.18";"-51.73";"America/Godthab";"0"
"19780967";"manila-wordpress-meetup";"WordPress Manila Meetup";"https://www.meetup.com/manila-wordpress-meetup";"ph";"4248";"2016-03-30";"14.62";"120.97";"Asia/Manila";"1"
"19786752";"wordpress-rosario";"WordPress Rosario";"https://www.meetup.com/wordpress-rosario";"ar";"483";"2016-04-01";"-32.95";"-60.67";"America/Argentina/Cordoba";"1"
"19786334";"Kailua-Kona-WordPress-Meetup";"Kailua-Kona WordPress Meetup";"https://www.meetup.com/kailua-kona-wordpress-meetup";"us";"163";"2016-04-02";"19.66";"-155.98";"Pacific/Honolulu";"1"
"19792614";"wordpress-nairobi";"WordPress Nairobi";"https://www.meetup.com/wordpress-nairobi";"ke";"2718";"2016-04-03";"-1.29";"36.82";"Africa/Nairobi";"1"
"19811871";"Kumasi-WordPress-Meetup";"Kumasi WordPress Meetup";"https://www.meetup.com/kumasi-wordpress-meetup";"gh";"202";"2016-04-07";"6.69";"-1.63";"Africa/Abidjan";"1"
"19813402";"Meetup-WordPress-Catania";"WordPress Meetup Catania";"https://www.meetup.com/meetup-wordpress-catania";"it";"1110";"2016-04-07";"37.5";"15.09";"Europe/Rome";"1"
"19811914";"Buea-WordPress-Meetup";"Buea WordPress Meetup";"https://www.meetup.com/buea-wordpress-meetup";"cm";"158";"2016-04-07";"4.16";"9.23";"Africa/Lagos";"1"
"19835564";"WordPress-Bari";"WordPress Bari";"https://www.meetup.com/wordpress-bari";"it";"539";"2016-04-13";"41.13";"16.87";"Europe/Rome";"1"
"19839817";"wordpress-norwich";"WordPress Norwich";"https://www.meetup.com/wordpress-norwich";"gb";"388";"2016-04-14";"52.63";"1.31";"Europe/London";"1"
"19855134";"WordPress-Guadalajara";"WordPress Guadalajara";"https://www.meetup.com/wordpress-guadalajara";"mx";"1109";"2016-04-18";"20.67";"-103.35";"America/Mexico_City";"1"
"19855089";"Bogota-WordPress-Meetup";"Bogotá WordPress Meetup";"https://www.meetup.com/bogota-wordpress-meetup";"co";"1723";"2016-04-18";"4.63";"-74.09";"America/Bogota";"1"
"19858266";"WordPress-Meetup-Parma";"WordPress Meetup Parma";"https://www.meetup.com/wordpress-meetup-parma";"it";"276";"2016-04-19";"44.8";"10.33";"Europe/Rome";"1"
"19871412";"WordPress-Tulua";"WordPress Tuluá";"https://www.meetup.com/wordpress-tulua";"co";"525";"2016-04-22";"4.09";"-76.21";"America/Bogota";"1"
"19870225";"8a18bf44-bf0d-48f5-8869-e3bf2d6b3758";"Northwestern NJ WordPress Meetup";"https://www.meetup.com/8a18bf44-bf0d-48f5-8869-e3bf2d6b3758";"us";"133";"2016-04-22";"40.65";"-74.93";"America/New_York";"0"
"19897126";"Maidstone-WordPress-Meetup";"Maidstone WordPress Meetup";"https://www.meetup.com/maidstone-wordpress-meetup";"gb";"129";"2016-04-29";"51.28";"0.51";"Europe/London";"1"
"19896935";"Verona-WordPress-Meetup";"Verona WordPress Meetup";"https://www.meetup.com/verona-wordpress-meetup";"it";"898";"2016-04-29";"45.45";"11";"Europe/Rome";"1"
"19942258";"wordpress-quito";"Comunidad WordPress Quito";"https://www.meetup.com/wordpress-quito";"ec";"1684";"2016-05-11";"-0.19";"-78.5";"America/Guayaquil";"1"
"19948724";"eifel-wordpress-meetup";"WordPress Meetup Eifel";"https://www.meetup.com/eifel-wordpress-meetup";"de";"101";"2016-05-13";"50.22";"6.66";"Europe/Berlin";"1"
"19948564";"wuerzburg-wordpress-meetup";"WPMeetup Würzburg";"https://www.meetup.com/wuerzburg-wordpress-meetup";"de";"347";"2016-05-13";"49.8";"9.94";"Europe/Berlin";"1"
"19963319";"nurnberg-wordpress-meetup";"WordPress Meetup Nürnberg";"https://www.meetup.com/nurnberg-wordpress-meetup";"de";"726";"2016-05-17";"49.45";"11.05";"Europe/Berlin";"1"
"19986689";"Rajkot-WordPress-Meetup";"Rajkot WordPress Meetup";"https://www.meetup.com/rajkot-wordpress-meetup";"in";"228";"2016-05-23";"22.31";"70.79";"Asia/Kolkata";"1"
"19985586";"wordpress-meetup-saarland";"WordPress Meetup Saarland";"https://www.meetup.com/wordpress-meetup-saarland";"de";"47";"2016-05-23";"49.54";"6.88";"Europe/Berlin";"1"
"20018454";"nantes-wordpress-meetup";"Nantes WordPress Meetup";"https://www.meetup.com/nantes-wordpress-meetup";"fr";"730";"2016-05-31";"47.23";"-1.57";"Europe/Paris";"1"
"20021854";"WordPress-Malaga";"WordPress Málaga";"https://www.meetup.com/wordpress-malaga";"es";"1620";"2016-06-01";"36.72";"-4.42";"Europe/Madrid";"1"
"20024768";"bali-wordpress-meetup";"WordPress Meetup Bali";"https://www.meetup.com/bali-wordpress-meetup";"id";"819";"2016-06-01";"-8.52";"115.26";"Asia/Jakarta";"1"
"20026006";"Harare-WordPress-Meetup";"Harare WordPress Meetup";"https://www.meetup.com/harare-wordpress-meetup";"zw";"799";"2016-06-02";"-17.82";"31.05";"Africa/Maputo";"1"
"20025902";"treasurevalleywp";"Boise WordPress Meetups";"https://www.meetup.com/treasurevalleywp";"us";"535";"2016-06-02";"43.53";"-116.57";"America/Denver";"1"
"20026058";"Glasgow-WordPress-Meetup";"Glasgow WordPress Meetup";"https://www.meetup.com/glasgow-wordpress-meetup";"gb";"728";"2016-06-02";"55.86";"-4.25";"Europe/London";"1"
"20024934";"Valence-WordPress-Meetup";"WP Drôme-Ardèche  Valence WordPress Meetup";"https://www.meetup.com/valence-wordpress-meetup";"fr";"149";"2016-06-02";"44.93";"4.89";"Europe/Paris";"1"
"20029867";"WordPress-Meetup-Viborg";"WordPress Meetup Viborg";"https://www.meetup.com/wordpress-meetup-viborg";"dk";"228";"2016-06-03";"56.46";"9.41";"Europe/Berlin";"1"
"20041129";"Blackburn-WordPress-Meetup";"Blackburn WordPress Meetup";"https://www.meetup.com/blackburn-wordpress-meetup";"gb";"237";"2016-06-06";"53.75";"-2.49";"Europe/London";"1"
"20053547";"20e11b88-43da-40ed-8b6c-359f03c35e60";"Juba WordPress Meetup";"https://www.meetup.com/20e11b88-43da-40ed-8b6c-359f03c35e60";"ss";"54";"2016-06-09";"4.85";"31.6";"Africa/Khartoum";"0"
"20054183";"wp-meetup-dresden";"WordPress Meetup Dresden";"https://www.meetup.com/wp-meetup-dresden";"de";"441";"2016-06-09";"51.05";"13.74";"Europe/Berlin";"1"
"20054134";"Port-of-Spain-WordPress-Meetup";"Trinidad & Tobago WordPress Meetup";"https://www.meetup.com/port-of-spain-wordpress-meetup";"tt";"673";"2016-06-09";"10.66";"-61.51";"America/Puerto_Rico";"1"
"20064103";"45d7720f-5ecf-4eb9-afd2-a0967176e2e3";"Rivas WordPress Meetup";"https://www.meetup.com/45d7720f-5ecf-4eb9-afd2-a0967176e2e3";"es";"146";"2016-06-12";"40.33";"-3.52";"Europe/Madrid";"0"
"20081502";"Ile-Ife-WordPress-Meetup";"Ife WordPress Meetup";"https://www.meetup.com/ile-ife-wordpress-meetup";"ng";"613";"2016-06-16";"7.55";"4.57";"Africa/Lagos";"1"
"20081158";"WordPress-Meetup-Quebec";"WordPress Meetup Québec";"https://www.meetup.com/wordpress-meetup-quebec";"ca";"306";"2016-06-16";"46.81";"-71.21";"America/Toronto";"1"
"20084573";"wordpress-meetup-luxembourg";"WordPress Meetup Luxembourg";"https://www.meetup.com/wordpress-meetup-luxembourg";"lu";"564";"2016-06-17";"49.62";"6.12";"Europe/Brussels";"1"
"20084599";"WP-Meetup-NS";"WP Meetup Novi Sad";"https://www.meetup.com/wp-meetup-ns";"rs";"1564";"2016-06-17";"45.25";"19.85";"Europe/Belgrade";"1"
"20120446";"meetup-wordpress-ancona";"WordPress Ancona Meetup";"https://www.meetup.com/meetup-wordpress-ancona";"it";"438";"2016-06-27";"43.63";"13.5";"Europe/Rome";"1"
"20129418";"Columbia-WordPress-Meetup";"Columbia WordPress Meetup";"https://www.meetup.com/columbia-wordpress-meetup";"us";"403";"2016-06-29";"34";"-81.03";"America/New_York";"1"
"20133709";"WordPress-Davao-PH";"Davao WordPress Meetup";"https://www.meetup.com/wordpress-davao-ph";"ph";"368";"2016-06-30";"7.11";"125.63";"Asia/Manila";"1"
"20132567";"Padova-WordPress-Meetup";"Padova WordPress Meetup";"https://www.meetup.com/padova-wordpress-meetup";"it";"696";"2016-06-30";"45.41";"11.88";"Europe/Rome";"1"
"20140459";"wordpress-nis";"WordPress Ni";"https://www.meetup.com/wordpress-nis";"rs";"968";"2016-07-03";"43.33";"21.9";"Europe/Belgrade";"1"
"20145092";"95ad95e4-2d74-47a3-89f7-1af116c71ab5";"WordPress Meetup Avezzano";"https://www.meetup.com/95ad95e4-2d74-47a3-89f7-1af116c71ab5";"it";"121";"2016-07-04";"42.03";"13.43";"Europe/Rome";"0"
"20161947";"oulu-wordpress-meetup";"Oulu WordPress Meetup - needs organizer!";"https://www.meetup.com/oulu-wordpress-meetup";"fi";"143";"2016-07-08";"65.02";"25.47";"Europe/Helsinki";"1"
"20176653";"wpmeetup-muenster-osnabrueck";"WordPress Meetup Münster / Osnabrück";"https://www.meetup.com/wpmeetup-muenster-osnabrueck";"de";"410";"2016-07-12";"52.28";"8.05";"Europe/Berlin";"1"
"20176596";"dusseldorf-wordpress-meetup";"Düsseldorf WordPress Meetup";"https://www.meetup.com/dusseldorf-wordpress-meetup";"de";"1669";"2016-07-12";"51.24";"6.79";"Europe/Berlin";"1"
"20183114";"kaunas-wordpress-meetup";"Kaunas WordPress Meetup";"https://www.meetup.com/kaunas-wordpress-meetup";"lt";"1012";"2016-07-14";"54.9";"23.91";"Europe/Vilnius";"1"
"20183090";"WordPress-Leeds";"WordPress Leeds";"https://www.meetup.com/wordpress-leeds";"gb";"1606";"2016-07-14";"53.79";"-1.55";"Europe/London";"1"
"20183172";"Piacenza-WordPress-Meetup";"Piacenza WordPress Meetup";"https://www.meetup.com/piacenza-wordpress-meetup";"it";"256";"2016-07-14";"45.05";"9.7";"Europe/Rome";"1"
"20218819";"WordPress-Baden";"WordPress Baden";"https://www.meetup.com/wordpress-baden";"ch";"187";"2016-07-24";"47.48";"8.31";"Europe/Zurich";"1"
"20234010";"wpexeter";"WordPress Exeter";"https://www.meetup.com/wpexeter";"gb";"300";"2016-07-28";"50.73";"-3.54";"Europe/London";"1"
"20266193";"WordPress-Xativa";"WordPress  Xàtiva";"https://www.meetup.com/wordpress-xativa";"es";"268";"2016-08-01";"39";"-0.53";"Europe/Madrid";"1"
"20294655";"Little-Rock-WordPress-Meetup";"Little Rock WordPress Meetup";"https://www.meetup.com/little-rock-wordpress-meetup";"us";"451";"2016-08-08";"34.75";"-92.28";"America/Chicago";"1"
"20292601";"f01c4732-9623-41a6-9895-bd1ded573259";"WordPress Meetup Andria";"https://www.meetup.com/f01c4732-9623-41a6-9895-bd1ded573259";"it";"107";"2016-08-08";"41.23";"16.29";"Europe/Rome";"0"
"20304794";"WordPress-Brno-Meetups";"WordPress Brno Meetups";"https://www.meetup.com/wordpress-brno-meetups";"cz";"444";"2016-08-11";"49.2";"16.61";"Europe/Prague";"1"
"20308423";"WordPress-Hasselt-Meetup";"WordPress Hasselt Meetup";"https://www.meetup.com/wordpress-hasselt-meetup";"be";"332";"2016-08-12";"50.93";"5.34";"Europe/Brussels";"1"
"20329771";"WordPress-Meetup-Islamabad-Rawalpindi";"WordPress Meetup Islamabad - Rawalpindi";"https://www.meetup.com/wordpress-meetup-islamabad-rawalpindi";"pk";"2962";"2016-08-18";"33.6";"73.04";"Asia/Karachi";"1"
"20342734";"Myrtle-Beach-WordPress-Meetup";"Myrtle Beach WordPress Meetup";"https://www.meetup.com/myrtle-beach-wordpress-meetup";"us";"634";"2016-08-22";"33.76";"-78.8";"America/New_York";"1"
"20407881";"a2fd4720-f7d8-486f-abc6-d39310b611a4";"SSI WordPress Meetup";"https://www.meetup.com/a2fd4720-f7d8-486f-abc6-d39310b611a4";"ca";"51";"2016-09-09";"48.86";"-123.52";"America/Vancouver";"0"
"20438353";"KolkataWordPressMeetups";"Kolkata WordPress Meetup";"https://www.meetup.com/kolkatawordpressmeetups";"in";"1982";"2016-09-18";"22.57";"88.36";"Asia/Kolkata";"1"
"20631498";"Ipswich-WordPress-Meetup";"Ipswich WordPress Meetup";"https://www.meetup.com/ipswich-wordpress-meetup";"au";"380";"2016-10-06";"-27.61";"152.76";"Australia/Brisbane";"1"
"20640436";"wordpress-las-palmas-de-gran-canaria";"WordPress Las Palmas de Gran Canaria";"https://www.meetup.com/wordpress-las-palmas-de-gran-canaria";"es";"1591";"2016-10-07";"28.1";"-15.43";"Atlantic/Canary";"1"
"20640103";"6f3a1104-8f21-4157-b087-0e754b347647";"Prishtina WordPress Meetup";"https://www.meetup.com/6f3a1104-8f21-4157-b087-0e754b347647";"xk";"132";"2016-10-07";"42.65";"21.17";"Europe/Belgrade";"0"
"20640335";"wordpress-meetup-ragusa";"WordPress Meetup Ragusa";"https://www.meetup.com/wordpress-meetup-ragusa";"it";"151";"2016-10-07";"36.93";"14.73";"Europe/Rome";"1"
"20640553";"e36349fb-1736-47cd-aaea-c7b848a90ba5";"WordPress Meetup Biella";"https://www.meetup.com/e36349fb-1736-47cd-aaea-c7b848a90ba5";"it";"449";"2016-10-07";"45.56";"8.06";"Europe/Rome";"0"
"20639605";"Cluj-Napoca-WordPress-Meetup";"Cluj-Napoca WordPress Meetup";"https://www.meetup.com/cluj-napoca-wordpress-meetup";"ro";"707";"2016-10-07";"46.78";"23.59";"Europe/Bucharest";"1"
"20701437";"wp-mtl";"Communauté WordPress Montréal / Montreal WordPress Community";"https://www.meetup.com/wp-mtl";"ca";"2119";"2016-10-12";"45.65";"-73.5";"America/Toronto";"1"
"20708991";"treviso-wordpress-meetup";"Treviso WordPress Meetup";"https://www.meetup.com/treviso-wordpress-meetup";"it";"810";"2016-10-13";"45.67";"11.93";"Europe/Rome";"1"
"20726270";"Aachen-WordPress-Meetup";"Aachen WordPress Meetup";"https://www.meetup.com/aachen-wordpress-meetup";"de";"626";"2016-10-14";"50.77";"6.09";"Europe/Berlin";"1"
"20780712";"Lucknow-WordPress-Meetup";"Lucknow Wordpress Meetup";"https://www.meetup.com/lucknow-wordpress-meetup";"in";"1388";"2016-10-17";"26.85";"80.95";"Asia/Kolkata";"1"
"20770745";"53cace0e-39e5-46ba-87dc-2eb128325e2d";"WordPress Baixada Rio";"https://www.meetup.com/53cace0e-39e5-46ba-87dc-2eb128325e2d";"br";"325";"2016-10-17";"-22.74";"-43.47";"America/Sao_Paulo";"0"
"20788418";"pontevedra-wordpress-meetup";"Pontevedra WordPress Meetup";"https://www.meetup.com/pontevedra-wordpress-meetup";"es";"810";"2016-10-18";"42.42";"-8.66";"Europe/Madrid";"1"
"20788253";"Alcala-de-Henares-WordPress-Meetup";"Alcalá de Henares WordPress Meetup";"https://www.meetup.com/alcala-de-henares-wordpress-meetup";"es";"209";"2016-10-18";"40.48";"-3.37";"Europe/Madrid";"1"
"20879125";"Hong-Kong-WordPress-Meetup";"Hong Kong WordPress Meetup";"https://www.meetup.com/hong-kong-wordpress-meetup";"hk";"3840";"2016-10-23";"22.27";"114.14";"Asia/Shanghai";"1"
"20882162";"WordPress-Pretoria";"WordPress Pretoria";"https://www.meetup.com/wordpress-pretoria";"za";"1149";"2016-10-24";"-25.73";"28.22";"Africa/Johannesburg";"1"
"20989983";"WordPress-Meetup-Heerhugowaard";"WordPress Meetup Heerhugowaard";"https://www.meetup.com/wordpress-meetup-heerhugowaard";"nl";"267";"2016-11-01";"52.67";"4.85";"Europe/Brussels";"1"
"20991182";"86cc0349-3323-4096-b26c-29410eb50447";"WordPress Meetup Brindisi";"https://www.meetup.com/86cc0349-3323-4096-b26c-29410eb50447";"it";"141";"2016-11-01";"40.64";"17.94";"Europe/Rome";"0"
"21088641";"Niagara-WordPress-Meetup";"Niagara WordPress Meetup";"https://www.meetup.com/niagara-wordpress-meetup";"ca";"507";"2016-11-08";"43.2";"-79.22";"America/Toronto";"1"
"21118245";"WordPress-Barranquilla";"WordPress Barranquilla";"https://www.meetup.com/wordpress-barranquilla";"co";"888";"2016-11-10";"11";"-74.82";"America/Bogota";"1"
"21121191";"2437c945-2916-4cdc-bf19-540451efba4b";"Bedfordshire WordPress Meetup";"https://www.meetup.com/2437c945-2916-4cdc-bf19-540451efba4b";"gb";"150";"2016-11-10";"51.9";"-0.44";"Europe/London";"0"
"21134949";"whittierwp";"Whittier WordPress";"https://www.meetup.com/whittierwp";"us";"336";"2016-11-12";"33.94";"-117.99";"America/Los_Angeles";"1"
"21258283";"WordPress-Port-Macquarie";"WordPress Port Macquarie";"https://www.meetup.com/wordpress-port-macquarie";"au";"195";"2016-11-22";"-31.44";"152.91";"Australia/Sydney";"1"
"21256064";"Skopje-WordPress-Meetup";"Skopje WordPress Meetup";"https://www.meetup.com/skopje-wordpress-meetup";"mk";"800";"2016-11-22";"42";"21.47";"Europe/Belgrade";"1"
"21266347";"dc71c584-b65f-4a4e-bf95-42e707eed903";"WordPress Geelong";"https://www.meetup.com/dc71c584-b65f-4a4e-bf95-42e707eed903";"au";"222";"2016-11-23";"-38.14";"144.32";"Australia/Melbourne";"0"
"21261959";"WordPress-Rethimnon";"WordPress Réthimnon";"https://www.meetup.com/wordpress-rethimnon";"gr";"132";"2016-11-23";"35.36";"24.47";"Europe/Athens";"1"
"21313163";"WP-Havering";"WP Havering";"https://www.meetup.com/wp-havering";"gb";"425";"2016-11-29";"51.58";"0.18";"Europe/London";"1"
"21323461";"Varna-WordPress-Meetup";"Varna WordPress Meetup";"https://www.meetup.com/varna-wordpress-meetup";"bg";"508";"2016-11-30";"43.21";"27.9";"Europe/Sofia";"1"
"21406811";"mombasawordpressmeetup";"Mombasa WordPress Meetup";"https://www.meetup.com/mombasawordpressmeetup";"ke";"555";"2016-12-03";"-4.04";"39.66";"Africa/Nairobi";"1"
"21458677";"WordPress-Cartagena";"WordPress Cartagena";"https://www.meetup.com/wordpress-cartagena";"es";"785";"2016-12-05";"37.61";"-0.98";"Europe/Madrid";"1"
"21531045";"coimbatore-wordpress-meetup";"Coimbatore WordPress Meetup";"https://www.meetup.com/coimbatore-wordpress-meetup";"in";"242";"2016-12-09";"11.02";"76.96";"Asia/Kolkata";"1"
"21562568";"Bekasi-WordPress-Meetup";"Bekasi WordPress Meetup";"https://www.meetup.com/bekasi-wordpress-meetup";"id";"506";"2016-12-12";"-6.22";"106.97";"Asia/Jakarta";"1"
"21666763";"WordPress-Cancun";"WordPress Cancun";"https://www.meetup.com/wordpress-cancun";"mx";"252";"2016-12-23";"16.92";"-92.48";"America/Mexico_City";"1"
"21665002";"wpsheffield";"WordPress Sheffield";"https://www.meetup.com/wpsheffield";"gb";"509";"2016-12-23";"53.39";"-1.48";"Europe/London";"1"
"21816686";"agra-wordpress-meetup";"Agra WordPress Meetup";"https://www.meetup.com/agra-wordpress-meetup";"in";"592";"2017-01-08";"27.19";"78.01";"Asia/Kolkata";"1"
"21831186";"valladolid-wordpress-meetup";"Valladolid WordPress Meetup";"https://www.meetup.com/valladolid-wordpress-meetup";"es";"457";"2017-01-10";"41.65";"-4.74";"Europe/Madrid";"1"
"21833113";"Glendive-WordPress-Meetup";"Glendive WordPress Meetup";"https://www.meetup.com/glendive-wordpress-meetup";"us";"42";"2017-01-10";"47.11";"-104.72";"America/Denver";"1"
"21833242";"9b95b036-2d30-41ac-acc5-3b7654e708fd";"Reading WordPress Meetup";"https://www.meetup.com/9b95b036-2d30-41ac-acc5-3b7654e708fd";"us";"245";"2017-01-10";"40.35";"-75.94";"America/New_York";"0"
"21987282";"Grenoble-WordPress-Meetup";"Grenoble WordPress Meetup";"https://www.meetup.com/grenoble-wordpress-meetup";"fr";"445";"2017-01-19";"45.19";"5.72";"Europe/Paris";"1"
"22045808";"granada-wordpress-meetup";"WordPress Granada";"https://www.meetup.com/granada-wordpress-meetup";"es";"1382";"2017-01-23";"37.17";"-3.59";"Europe/Madrid";"1"
"22079723";"wordpress-frederick";"WordPress Frederick";"https://www.meetup.com/wordpress-frederick";"us";"576";"2017-01-25";"39.42";"-77.34";"America/New_York";"1"
"22085059";"fefd3248-2fef-42ab-ad07-a462314e475e";"Kitchener WordPress Meetup";"https://www.meetup.com/fefd3248-2fef-42ab-ad07-a462314e475e";"ca";"299";"2017-01-26";"43.44";"-80.43";"America/Toronto";"0"
"22294217";"nlwordpress";"St. John's WordPress Meetup";"https://www.meetup.com/nlwordpress";"ca";"211";"2017-02-08";"47.62";"-52.7";"America/St_Johns";"1"
"22300913";"Alcazar-de-San-Juan-WordPress-Meetup";"Alcázar de San Juan WordPress Meetup";"https://www.meetup.com/alcazar-de-san-juan-wordpress-meetup";"es";"65";"2017-02-09";"39.39";"-3.21";"Europe/Madrid";"1"
"22399084";"Kampala-WordPress-Meetup";"Kampala WordPress Meetup";"https://www.meetup.com/kampala-wordpress-meetup";"ug";"2042";"2017-02-15";"0.32";"32.58";"Africa/Nairobi";"1"
"22487806";"WP-Meetup-Paderborn";"WP Meetup Paderborn";"https://www.meetup.com/wp-meetup-paderborn";"de";"196";"2017-02-20";"51.72";"8.74";"Europe/Berlin";"1"
"22573636";"d5f33d95-28f7-4859-bbe0-164b66912868";"Carlisle WordPress Meetup";"https://www.meetup.com/d5f33d95-28f7-4859-bbe0-164b66912868";"us";"226";"2017-02-22";"40.2";"-77.31";"America/New_York";"0"
"22583618";"surabaya-wordpress-meetup";"Surabaya WordPress Meetup";"https://www.meetup.com/surabaya-wordpress-meetup";"id";"1713";"2017-02-22";"-7.24";"112.74";"Asia/Jakarta";"1"
"22688554";"Madison-WordPress-Meetup";"Madison WordPress Meetup";"https://www.meetup.com/madison-wordpress-meetup";"us";"619";"2017-02-28";"43.08";"-89.38";"America/Chicago";"1"
"22764071";"WPAlmeria";"WordPress Almería (WPAlmeria)";"https://www.meetup.com/wpalmeria";"es";"211";"2017-03-04";"36.83";"-2.43";"Europe/Madrid";"1"
"22826935";"WordPress-Chandigarh";"WordPress Chandigarh (Tri-City)";"https://www.meetup.com/wordpress-chandigarh";"in";"560";"2017-03-09";"30.75";"76.78";"Asia/Kolkata";"1"
"22871721";"wordpress-monterey";"WordPress Monterey";"https://www.meetup.com/wordpress-monterey";"us";"238";"2017-03-13";"36.59";"-121.85";"America/Los_Angeles";"1"
"22879855";"201b8924-c34e-4bc8-a937-c1f8339fe297";"Meetup WordPress Melun";"https://www.meetup.com/201b8924-c34e-4bc8-a937-c1f8339fe297";"fr";"254";"2017-03-14";"48.54";"2.65";"Europe/Paris";"0"
"22903582";"Cardiff-WordPress-Meetup";"Cardiff WordPress Meetup";"https://www.meetup.com/cardiff-wordpress-meetup";"gb";"391";"2017-03-16";"51.46";"-3.17";"Europe/London";"1"
"23006301";"wordpressourense";"WordPress Ourense";"https://www.meetup.com/wordpressourense";"es";"565";"2017-03-25";"42.33";"-7.87";"Europe/Madrid";"1"
"23047889";"WordPress-Iloilo";"WordPress Iloilo";"https://www.meetup.com/wordpress-iloilo";"ph";"523";"2017-03-28";"10.69";"122.55";"Asia/Manila";"1"
"23043151";"1a90acaf-0f21-46dd-bd0d-28d9af0c5a83";"Jackson WordPress Meetup";"https://www.meetup.com/1a90acaf-0f21-46dd-bd0d-28d9af0c5a83";"us";"305";"2017-03-28";"32.29";"-90.18";"America/Chicago";"0"
"23071471";"wordpress-meetup-bonn-wpbn";"WordPress Meetup Bonn #wpbn";"https://www.meetup.com/wordpress-meetup-bonn-wpbn";"de";"960";"2017-03-31";"50.73";"7.1";"Europe/Berlin";"1"
"23084742";"WordPress-Tunbridge-Wells-Meetup";"WordPress Tunbridge Wells Meetup - WPTW";"https://www.meetup.com/wordpress-tunbridge-wells-meetup";"gb";"472";"2017-04-01";"51.13";"0.26";"Europe/London";"1"
"23143366";"wordpresstarragona";"WordPress Tarragona";"https://www.meetup.com/wordpresstarragona";"es";"1017";"2017-04-04";"41.12";"1.24";"Europe/Madrid";"1"
"23161512";"wordpresslugo";"WordPress Lugo";"https://www.meetup.com/wordpresslugo";"es";"564";"2017-04-05";"43.02";"-7.56";"Europe/Madrid";"1"
"23177558";"St-Albans-WordPress-Meetup";"St Albans WordPress Meetup";"https://www.meetup.com/st-albans-wordpress-meetup";"gb";"269";"2017-04-06";"51.75";"-0.34";"Europe/London";"1"
"23175145";"dhaka-wordpress-meetup";"Dhaka WordPress Meetup";"https://www.meetup.com/dhaka-wordpress-meetup";"bd";"2889";"2017-04-06";"23.7";"90.39";"Asia/Dhaka";"1"
"23191340";"3f5b132c-cea5-4515-b7e0-d6cb124894c9";"Jerez WordPress Meetup";"https://www.meetup.com/3f5b132c-cea5-4515-b7e0-d6cb124894c9";"es";"273";"2017-04-07";"36.68";"-6.13";"Europe/Madrid";"0"
"23196546";"WordPress-Lleida";"WordPress Lleida";"https://www.meetup.com/wordpress-lleida";"es";"297";"2017-04-07";"41.62";"0.63";"Europe/Madrid";"1"
"23258203";"Sliema-WordPress-Meetup";"Sliema WordPress Meetup";"https://www.meetup.com/sliema-wordpress-meetup";"mt";"645";"2017-04-12";"35.92";"14.5";"Europe/Malta";"1"
"23331831";"Woodstock-WordPress-Meetup";"Woodstock WordPress Meetup";"https://www.meetup.com/woodstock-wordpress-meetup";"us";"698";"2017-04-18";"34.12";"-84.46";"America/New_York";"1"
"23331974";"Conyers-WordPress-Meetup";"Conyers WordPress Meetup";"https://www.meetup.com/conyers-wordpress-meetup";"us";"464";"2017-04-18";"33.71";"-84.01";"America/New_York";"1"
"23461902";"Christchurch-WordPress-Meetup";"Christchurch WordPress Meetup";"https://www.meetup.com/christchurch-wordpress-meetup";"nz";"240";"2017-04-27";"-43.53";"172.64";"Pacific/Auckland";"1"
"23467842";"irun-wordpress-meetup";"Irun WordPress Meetup";"https://www.meetup.com/irun-wordpress-meetup";"es";"555";"2017-04-28";"43.35";"-1.8";"Europe/Madrid";"1"
"23718959";"Taipei-WordPress";"Taipei WordPress Meetup";"https://www.meetup.com/taipei-wordpress";"tw";"2530";"2017-05-10";"25.02";"121.45";"Asia/Taipei";"1"
"23701689";"Ieper-WordPress-Meetup";"Ieper WordPress Meetup";"https://www.meetup.com/ieper-wordpress-meetup";"be";"91";"2017-05-10";"50.85";"2.88";"Europe/Brussels";"1"
"23718819";"yogyakarta-wordpress-meetup";"Yogyakarta WordPress Meetup";"https://www.meetup.com/yogyakarta-wordpress-meetup";"id";"2332";"2017-05-11";"-7.78";"110.37";"Asia/Jakarta";"1"
"23731534";"WPGramenet";"WordPress Gramenet";"https://www.meetup.com/wpgramenet";"es";"347";"2017-05-12";"41.47";"2.22";"Europe/Madrid";"1"
"23761527";"Mostoles-WordPress-Meetup";"Móstoles WordPress Meetup";"https://www.meetup.com/mostoles-wordpress-meetup";"es";"282";"2017-05-14";"40.32";"-3.88";"Europe/Madrid";"1"
"23848526";"Coeur-dAlene-WordPress-Meetup";"Coeur d'Alene & Spokane WordPress Meetup";"https://www.meetup.com/coeur-dalene-wordpress-meetup";"us";"512";"2017-05-18";"47.69";"-116.78";"America/Los_Angeles";"1"
"23871526";"wpcampinas";"WordPress Campinas";"https://www.meetup.com/wpcampinas";"br";"573";"2017-05-19";"-22.91";"-47.08";"America/Sao_Paulo";"1"
"23961585";"Amurrio-WordPress-Meetup";"Amurrio WordPress Meetup";"https://www.meetup.com/amurrio-wordpress-meetup";"es";"270";"2017-05-23";"43.07";"-3";"Europe/Madrid";"1"
"24061088";"3649a05c-730d-4d9e-ba61-6e93e3fefcf8";"WordBench";"https://www.meetup.com/3649a05c-730d-4d9e-ba61-6e93e3fefcf8";"jp";"385";"2017-05-27";"33.59";"130.41";"Asia/Tokyo";"0"
"24101774";"wppuebla";"WordPress Puebla";"https://www.meetup.com/wppuebla";"mx";"850";"2017-05-28";"19.05";"-98.22";"America/Mexico_City";"1"
"24113217";"wordpress-meetup-eindhoven";"WordPress Meetup Eindhoven";"https://www.meetup.com/wordpress-meetup-eindhoven";"nl";"597";"2017-05-29";"51.44";"5.47";"Europe/Brussels";"1"
"24175410";"Beirut-WordPress-Meetup";"Beirut WordPress Meetup";"https://www.meetup.com/beirut-wordpress-meetup";"lb";"1379";"2017-05-31";"33.88";"35.5";"Asia/Beirut";"1"
"24348494";"Constanta-WordPress-Meetup";"Constanta WordPress Meetup";"https://www.meetup.com/constanta-wordpress-meetup";"ro";"287";"2017-06-08";"44.18";"28.63";"Europe/Bucharest";"1"
"24464091";"Wordpress-Meetup-Monterrey-Oficial";"Wordpress Meetup Monterrey";"https://www.meetup.com/wordpress-meetup-monterrey-oficial";"mx";"1564";"2017-06-14";"25.67";"-100.32";"America/Monterrey";"1"
"24479034";"kozhikode-wordpress-meetup";"Kozhikode WordPress Meetup";"https://www.meetup.com/kozhikode-wordpress-meetup";"in";"1295";"2017-06-15";"11.26";"75.78";"Asia/Kolkata";"1"
"24477277";"wordpress-meetup-koblenz";"WordPress Meetup Koblenz";"https://www.meetup.com/wordpress-meetup-koblenz";"de";"416";"2017-06-15";"50.35";"7.6";"Europe/Berlin";"1"
"24475058";"seinajoki-wordpress-meetup";"Seinäjoki WordPress Meetup";"https://www.meetup.com/seinajoki-wordpress-meetup";"fi";"169";"2017-06-15";"62.79";"22.84";"Europe/Helsinki";"1"
"24489191";"New-Port-Richey-WordPress";"New Port Richey WordPress";"https://www.meetup.com/new-port-richey-wordpress";"us";"249";"2017-06-16";"28.24";"-82.73";"America/New_York";"1"
"24797204";"wptampabay";"WordPress Tampa Bay";"https://www.meetup.com/wptampabay";"us";"1046";"2017-07-02";"27.97";"-82.51";"America/New_York";"1"
"24850037";"peterborough-wordpress";"Peterborough WordPress Meetup";"https://www.meetup.com/peterborough-wordpress";"ca";"216";"2017-07-05";"44.33";"-78.33";"America/Toronto";"1"
"24859047";"girona-wordpress-meetup";"Girona WordPress Meetup";"https://www.meetup.com/girona-wordpress-meetup";"es";"567";"2017-07-06";"41.98";"2.81";"Europe/Madrid";"1"
"24851620";"bd4267cc-5f09-414e-9d24-8fe148db4ea6";"Puyallup WordPress Meetup";"https://www.meetup.com/bd4267cc-5f09-414e-9d24-8fe148db4ea6";"us";"79";"2017-07-06";"47.19";"-122.31";"America/Los_Angeles";"0"
"24858929";"Palermo-WordPress-Meetup";"Palermo WordPress Meetup";"https://www.meetup.com/palermo-wordpress-meetup";"it";"287";"2017-07-06";"38.12";"13.36";"Europe/Rome";"1"
"24878776";"cdc0bd8c-e041-4276-a3b1-e4165e18634c";"Johnson City WordPress Meetup";"https://www.meetup.com/cdc0bd8c-e041-4276-a3b1-e4165e18634c";"us";"156";"2017-07-07";"36.33";"-82.36";"America/New_York";"0"
"24878582";"Bend-WordPress-Meetup";"Bend WordPress Meetup";"https://www.meetup.com/bend-wordpress-meetup";"us";"435";"2017-07-08";"44.1";"-121.29";"America/Los_Angeles";"1"
"24940397";"Baguio-WordPress-Meetup";"Baguio WordPress Meetup";"https://www.meetup.com/baguio-wordpress-meetup";"ph";"558";"2017-07-11";"16.43";"120.57";"Asia/Manila";"1"
"24980751";"WordPress-Pamplona";"WordPress Pamplona";"https://www.meetup.com/wordpress-pamplona";"es";"259";"2017-07-14";"42.82";"-1.65";"Europe/Madrid";"1"
"25034632";"WordPress-Tours";"WP Tours";"https://www.meetup.com/wordpress-tours";"fr";"355";"2017-07-18";"47.38";"0.69";"Europe/Paris";"1"
"25051748";"Denton-WordPress-Meetup";"Denton WordPress Meetup";"https://www.meetup.com/denton-wordpress-meetup";"us";"715";"2017-07-19";"33.22";"-97.14";"America/Chicago";"1"
"25065710";"85db6ff8-65ad-478c-a934-8f9a5fbad5cd";"Bentonville WordPress Meetup";"https://www.meetup.com/85db6ff8-65ad-478c-a934-8f9a5fbad5cd";"us";"94";"2017-07-20";"36.38";"-94.21";"America/Chicago";"0"
"25144278";"Chattogram-WordPress-Meetup";"Chattogram WordPress Meetup";"https://www.meetup.com/chattogram-wordpress-meetup";"bd";"1452";"2017-07-25";"22.33";"91.81";"Asia/Dhaka";"1"
"25144103";"Abuja-WordPress-Meetup";"Abuja WordPress Meetup";"https://www.meetup.com/abuja-wordpress-meetup";"ng";"800";"2017-07-26";"9.18";"7.17";"Africa/Lagos";"1"
"25187190";"Trivandrum-WordPress-Meetup";"Trivandrum WordPress Meetup";"https://www.meetup.com/trivandrum-wordpress-meetup";"in";"609";"2017-07-28";"8.51";"76.95";"Asia/Kolkata";"1"
"25214220";"wordpresspetaluma";"WordPress Petaluma";"https://www.meetup.com/wordpresspetaluma";"us";"755";"2017-07-30";"38.24";"-122.66";"America/Los_Angeles";"1"
"25234098";"Kingston-WordPress-Group";"Kingston WordPress Group";"https://www.meetup.com/kingston-wordpress-group";"ca";"336";"2017-07-30";"44.26";"-76.49";"America/Toronto";"1"
"25248913";"WordPress-Mannheim";"WordPress Meetup Mannheim";"https://www.meetup.com/wordpress-mannheim";"de";"1019";"2017-07-31";"49.5";"8.47";"Europe/Berlin";"1"
"25269698";"Isle-of-Man-WordPress-Meetup";"Isle of Man WordPress Meetup";"https://www.meetup.com/isle-of-man-wordpress-meetup";"im";"141";"2017-08-01";"54.24";"-4.55";"Europe/London";"1"
"25269599";"sion-wordpress-meetup";"Sion WordPress Meetup";"https://www.meetup.com/sion-wordpress-meetup";"ch";"144";"2017-08-01";"46.25";"7.35";"Europe/Zurich";"1"
"25308086";"WordPress-Saint-Lucia-Meetup";"WordPress Saint Lucia Meetup";"https://www.meetup.com/wordpress-saint-lucia-meetup";"lc";"218";"2017-08-02";"14.03";"-60.98";"America/Puerto_Rico";"1"
"25308933";"Tahiti-WordPress-Meetup";"Tahiti WordPress Meetup";"https://www.meetup.com/tahiti-wordpress-meetup";"pf";"169";"2017-08-03";"-17.52";"-149.56";"Pacific/Tahiti";"1"
"25322995";"Cheltenham-WordPress-Meetup";"Cheltenham WordPress Meetup";"https://www.meetup.com/cheltenham-wordpress-meetup";"gb";"446";"2017-08-03";"51.9";"-2.09";"Europe/London";"1"
"25395332";"Rutland-WordPress-Meetup";"Rutland WordPress Meetup";"https://www.meetup.com/rutland-wordpress-meetup";"us";"177";"2017-08-07";"43.61";"-72.97";"America/New_York";"1"
"25395570";"d6693fe9-ab35-472d-b9c2-676632fb2659";"Kerrville WordPress Meetup";"https://www.meetup.com/d6693fe9-ab35-472d-b9c2-676632fb2659";"us";"93";"2017-08-07";"30.04";"-99.15";"America/Chicago";"0"
"25424652";"WordPress-Aljarafe-Meetup";"WordPress Aljarafe Meetup";"https://www.meetup.com/wordpress-aljarafe-meetup";"es";"413";"2017-08-09";"37.34";"-6.07";"Europe/Madrid";"1"
"25458634";"wordpress-meetup-vicenza";"WordPress Meetup Vicenza";"https://www.meetup.com/wordpress-meetup-vicenza";"it";"651";"2017-08-12";"45.55";"11.54";"Europe/Rome";"1"
"25485055";"b76e98c2-1e65-4330-a312-46bcf92e5066";"Cairns WordPress Meetup";"https://www.meetup.com/b76e98c2-1e65-4330-a312-46bcf92e5066";"au";"183";"2017-08-14";"-16.92";"145.75";"Australia/Brisbane";"0"
"25479052";"Gulfport-WordPress";"Gulfport WordPress";"https://www.meetup.com/gulfport-wordpress";"us";"189";"2017-08-14";"30.39";"-89.09";"America/Chicago";"1"
"25495741";"4d01c469-8c11-4198-92e9-f223f626829c";"Wesley Chapel WordPress Meetup";"https://www.meetup.com/4d01c469-8c11-4198-92e9-f223f626829c";"us";"140";"2017-08-15";"28.21";"-82.3";"America/New_York";"0"
"25527177";"Gdynia-WordPress-Meetup";"Gdynia WordPress Meetup";"https://www.meetup.com/gdynia-wordpress-meetup";"pl";"360";"2017-08-18";"54.52";"18.53";"Europe/Warsaw";"1"
"25572741";"WordPress-St-Gallen";"WordPress St.Gallen";"https://www.meetup.com/wordpress-st-gallen";"ch";"279";"2017-08-21";"47.44";"9.36";"Europe/Zurich";"1"
"25568123";"tehran-wordpress-meetup";"Tehran WordPress Meetup";"https://www.meetup.com/tehran-wordpress-meetup";"ir";"2541";"2017-08-21";"35.67";"51.43";"Asia/Tehran";"1"
"25586955";"naswp-cz";"NáWP WordPress komunita";"https://www.meetup.com/naswp-cz";"cz";"426";"2017-08-22";"50.08";"14.43";"Europe/Prague";"1"
"25614130";"wp-portharcourt";"WordPress PortHarcourt Meetup";"https://www.meetup.com/wp-portharcourt";"ng";"891";"2017-08-24";"4.78";"7";"Africa/Lagos";"1"
"25633117";"9bdb4e07-f8f2-4e0a-81ff-cb91bd0d2187";"Bhaktapur WordPress Meetup";"https://www.meetup.com/9bdb4e07-f8f2-4e0a-81ff-cb91bd0d2187";"np";"323";"2017-08-25";"27.67";"85.43";"Asia/Kathmandu";"0"
"25632754";"Pokhara-WordPress-Meetup";"Pokhara WordPress Meetup";"https://www.meetup.com/pokhara-wordpress-meetup";"np";"547";"2017-08-25";"28.22";"83.99";"Asia/Kathmandu";"1"
"25676257";"Calabar-WordPress-Meetup";"Calabar WordPress Meetup";"https://www.meetup.com/calabar-wordpress-meetup";"ng";"312";"2017-08-28";"4.96";"8.31";"Africa/Lagos";"1"
"25789239";"18ceca6d-c1c3-4eba-a3f9-42e32c66dce2";"Topeka WordPress Meetup";"https://www.meetup.com/18ceca6d-c1c3-4eba-a3f9-42e32c66dce2";"us";"187";"2017-09-05";"39.06";"-95.68";"America/Chicago";"0"
"25827084";"Blumenau-WordPress-Meetup";"Blumenau WordPress Meetup";"https://www.meetup.com/blumenau-wordpress-meetup";"br";"458";"2017-09-07";"-26.92";"-49.09";"America/Sao_Paulo";"1"
"25827186";"Spartanburg-WordPress-Meetup";"Spartanburg South Carolina WordPress Meetup";"https://www.meetup.com/spartanburg-wordpress-meetup";"us";"190";"2017-09-07";"34.96";"-81.86";"America/New_York";"1"
"25827486";"Athens-WordPress";"Athens WordPress";"https://www.meetup.com/athens-wordpress";"us";"323";"2017-09-07";"39.31";"-82.1";"America/New_York";"1"
"25839530";"7c7f5a14-9b1b-453a-8d19-4c1d8fdfb50c";"Dehradun WordPress Meetup";"https://www.meetup.com/7c7f5a14-9b1b-453a-8d19-4c1d8fdfb50c";"in";"616";"2017-09-08";"30.34";"78.05";"Asia/Kolkata";"0"
"25933219";"wordpresscoruna";"WordPress Coruña";"https://www.meetup.com/wordpresscoruna";"es";"996";"2017-09-15";"43.33";"-8.42";"Europe/Madrid";"1"
"25984043";"Cali-WordPress-Meetup";"Cali WordPress Meetup";"https://www.meetup.com/cali-wordpress-meetup";"co";"822";"2017-09-19";"3.42";"-76.51";"America/Bogota";"1"
"26041606";"capecodwp";"WordPress Cape Cod (Hyannis)";"https://www.meetup.com/capecodwp";"us";"455";"2017-09-24";"41.65";"-70.3";"America/New_York";"1"
"26068154";"Arezzo-WordPress-Meetup";"Arezzo WordPress Meetup";"https://www.meetup.com/arezzo-wordpress-meetup";"it";"256";"2017-09-27";"43.47";"11.86";"Europe/Rome";"1"
"26081256";"Cochabamba-WordPress-Meetup";"Cochabamba WordPress Meetup";"https://www.meetup.com/cochabamba-wordpress-meetup";"bo";"690";"2017-09-28";"-17.38";"-66.17";"America/La_Paz";"1"
"26126016";"7782cfb9-7d6e-40b6-9f08-5b168d40d293";"WordPress Podgorica";"https://www.meetup.com/7782cfb9-7d6e-40b6-9f08-5b168d40d293";"me";"221";"2017-10-02";"42.47";"19.28";"Europe/Belgrade";"0"
"26150574";"Ijebu-WordPress-Meetup";"Ijebu WordPress Meetup";"https://www.meetup.com/ijebu-wordpress-meetup";"ng";"373";"2017-10-04";"6.81";"3.92";"Africa/Lagos";"1"
"26206122";"Peshawar-WordPress-Meetup";"Peshawar WordPress Meetup";"https://www.meetup.com/peshawar-wordpress-meetup";"pk";"876";"2017-10-09";"34.01";"71.54";"Asia/Karachi";"1"
"26227593";"Bauchi-WordPress-Meetup";"Bauchi WordPress Meetup";"https://www.meetup.com/bauchi-wordpress-meetup";"ng";"191";"2017-10-11";"10.31";"9.84";"Africa/Lagos";"1"
"26227609";"Monrovia-WordPress-Meetup";"Monrovia WordPress Meetup";"https://www.meetup.com/monrovia-wordpress-meetup";"lr";"429";"2017-10-11";"6.31";"-10.8";"Africa/Monrovia";"1"
"26375261";"2c7d93f1-7e43-4e04-8f14-72d323ec5561";"Annapolis WordPress Meetup";"https://www.meetup.com/2c7d93f1-7e43-4e04-8f14-72d323ec5561";"us";"243";"2017-10-24";"39";"-76.51";"America/New_York";"0"
"26393181";"Lausanne-WordPress-Meetup";"Lausanne WordPress Meetup";"https://www.meetup.com/lausanne-wordpress-meetup";"ch";"444";"2017-10-26";"46.52";"6.62";"Europe/Zurich";"1"
"26393262";"f2588be8-b408-41e2-b6be-a8a908fae509";"Monthey WordPress Meetup";"https://www.meetup.com/f2588be8-b408-41e2-b6be-a8a908fae509";"ch";"29";"2017-10-26";"46.27";"6.93";"Europe/Zurich";"0"
"26472500";"wordpress-sjc";"WordPress SJC";"https://www.meetup.com/wordpress-sjc";"br";"450";"2017-11-02";"-23.2";"-45.88";"America/Sao_Paulo";"1"
"26474612";"cdabf1e1-b069-41e2-ab98-5b5e1cb720f8";"Linton WordPress Meetup";"https://www.meetup.com/cdabf1e1-b069-41e2-ab98-5b5e1cb720f8";"us";"30";"2017-11-02";"39.07";"-87.17";"America/New_York";"0"
"26523739";"a42a9a90-b8c2-43d6-8746-c99b483766a4";"Wroclaw WordPress Meetup";"https://www.meetup.com/a42a9a90-b8c2-43d6-8746-c99b483766a4";"pl";"271";"2017-11-07";"51.11";"17.03";"Europe/Warsaw";"0"
"26596062";"leon-wordpress-meetup";"WordPress León meetup";"https://www.meetup.com/leon-wordpress-meetup";"es";"285";"2017-11-14";"42.59";"-5.57";"Europe/Madrid";"1"
"26605332";"Ilorin-WordPress-Meetup";"Ilorin WordPress Meetup";"https://www.meetup.com/ilorin-wordpress-meetup";"ng";"425";"2017-11-15";"8.5";"4.53";"Africa/Lagos";"1"
"26606361";"Whitstable-WordPress-Meetup";"Whitstable WordPress Meetup";"https://www.meetup.com/whitstable-wordpress-meetup";"gb";"75";"2017-11-15";"51.36";"1.02";"Europe/London";"1"
"26615588";"Saltillo-WordPress-Meetup";"Saltillo WordPress Meetup";"https://www.meetup.com/saltillo-wordpress-meetup";"mx";"131";"2017-11-16";"25.42";"-101";"America/Monterrey";"1"
"26616661";"wpsanca";"WordPress São Carlos";"https://www.meetup.com/wpsanca";"br";"186";"2017-11-16";"-22.02";"-47.89";"America/Sao_Paulo";"1"
"26624875";"WordPress-Meetup-Rostock";"WordPress Meetup Rostock";"https://www.meetup.com/wordpress-meetup-rostock";"de";"170";"2017-11-17";"54.09";"12.1";"Europe/Berlin";"1"
"26624622";"d2b1458a-3767-433b-b245-0d07cdeb54b0";"WordPress Meetup Fulda";"https://www.meetup.com/d2b1458a-3767-433b-b245-0d07cdeb54b0";"de";"50";"2017-11-17";"50.55";"9.69";"Europe/Berlin";"0"
"26635894";"Udine-WordPress-Meetup";"Udine WordPress Meetup";"https://www.meetup.com/udine-wordpress-meetup";"it";"317";"2017-11-18";"46.07";"13.23";"Europe/Rome";"1"
"26653730";"ajmer-wordpress-meetup";"Ajmer WordPress Meetup";"https://www.meetup.com/ajmer-wordpress-meetup";"in";"346";"2017-11-20";"26.45";"74.64";"Asia/Kolkata";"1"
"26653600";"WordPress-Meetup-Vrsac";"WordPress Meetup Vrac #WPV";"https://www.meetup.com/wordpress-meetup-vrsac";"rs";"244";"2017-11-20";"45.13";"21.3";"Europe/Belgrade";"1"
"26653518";"kosice-wordpress-community";"Koice WordPress Community";"https://www.meetup.com/kosice-wordpress-community";"sk";"208";"2017-11-20";"48.73";"21.26";"Europe/Prague";"1"
"26662626";"dd7aaeb6-eea7-473b-8a9e-ae2a8c4832e4";"WordPress Molins de Rei";"https://www.meetup.com/dd7aaeb6-eea7-473b-8a9e-ae2a8c4832e4";"es";"89";"2017-11-21";"41.42";"2.01";"Europe/Madrid";"0"
"26667779";"WordPress-Meetup-Neustadt";"WordPress Meetup Neustadt";"https://www.meetup.com/wordpress-meetup-neustadt";"de";"376";"2017-11-21";"49.36";"8.13";"Europe/Berlin";"1"
"26670334";"4b3e7e44-2307-4cae-9f29-fc78b8c26084";"Port Elizabeth WordPress Meetup";"https://www.meetup.com/4b3e7e44-2307-4cae-9f29-fc78b8c26084";"za";"190";"2017-11-22";"-33.96";"25.59";"Africa/Johannesburg";"0"
"26698904";"0bffc2e1-dc2a-4e39-a0e1-d1e2e8f9ba13";"Puri WordPress Meetup";"https://www.meetup.com/0bffc2e1-dc2a-4e39-a0e1-d1e2e8f9ba13";"in";"299";"2017-11-25";"19.81";"85.83";"Asia/Kolkata";"0"
"26694420";"Leiden-WordPress-Meetup";"Leiden WordPress Meetup";"https://www.meetup.com/leiden-wordpress-meetup";"nl";"387";"2017-11-25";"52.17";"4.49";"Europe/Brussels";"1"
"26706082";"WordPress-Meetup-Arnhem";"WordPress Meetup Arnhem";"https://www.meetup.com/wordpress-meetup-arnhem";"nl";"188";"2017-11-26";"51.99";"5.91";"Europe/Brussels";"1"
"26715337";"40b76894-2f87-4e79-ae51-10d98283a2fc";"Oviedo WordPress Meetup";"https://www.meetup.com/40b76894-2f87-4e79-ae51-10d98283a2fc";"es";"418";"2017-11-27";"43.35";"-5.83";"Europe/Madrid";"0"
"26720250";"wordpress-chiang-mai";"WordPress Chiang Mai";"https://www.meetup.com/wordpress-chiang-mai";"th";"735";"2017-11-27";"18.8";"98.98";"Asia/Bangkok";"1"
